%time,field.header.seq,field.header.stamp,field.header.frame_id,field.child_frame_id,field.pose.pose.position.x,field.pose.pose.position.y,field.pose.pose.position.z,field.pose.pose.orientation.x,field.pose.pose.orientation.y,field.pose.pose.orientation.z,field.pose.pose.orientation.w,field.pose.covariance0,field.pose.covariance1,field.pose.covariance2,field.pose.covariance3,field.pose.covariance4,field.pose.covariance5,field.pose.covariance6,field.pose.covariance7,field.pose.covariance8,field.pose.covariance9,field.pose.covariance10,field.pose.covariance11,field.pose.covariance12,field.pose.covariance13,field.pose.covariance14,field.pose.covariance15,field.pose.covariance16,field.pose.covariance17,field.pose.covariance18,field.pose.covariance19,field.pose.covariance20,field.pose.covariance21,field.pose.covariance22,field.pose.covariance23,field.pose.covariance24,field.pose.covariance25,field.pose.covariance26,field.pose.covariance27,field.pose.covariance28,field.pose.covariance29,field.pose.covariance30,field.pose.covariance31,field.pose.covariance32,field.pose.covariance33,field.pose.covariance34,field.pose.covariance35,field.twist.twist.linear.x,field.twist.twist.linear.y,field.twist.twist.linear.z,field.twist.twist.angular.x,field.twist.twist.angular.y,field.twist.twist.angular.z,field.twist.covariance0,field.twist.covariance1,field.twist.covariance2,field.twist.covariance3,field.twist.covariance4,field.twist.covariance5,field.twist.covariance6,field.twist.covariance7,field.twist.covariance8,field.twist.covariance9,field.twist.covariance10,field.twist.covariance11,field.twist.covariance12,field.twist.covariance13,field.twist.covariance14,field.twist.covariance15,field.twist.covariance16,field.twist.covariance17,field.twist.covariance18,field.twist.covariance19,field.twist.covariance20,field.twist.covariance21,field.twist.covariance22,field.twist.covariance23,field.twist.covariance24,field.twist.covariance25,field.twist.covariance26,field.twist.covariance27,field.twist.covariance28,field.twist.covariance29,field.twist.covariance30,field.twist.covariance31,field.twist.covariance32,field.twist.covariance33,field.twist.covariance34,field.twist.covariance35
361599265415,0,361599265415,camera_init,body,-0.0030059949341584855,-0.005959768831779174,0.012023804576401155,-0.0005037755709683679,0.0007907546133987412,0.00014386080350434443,0.9999995501105918,0.0,0.0,0.0,0.0,0.0,0.0,0.0,0.0,0.0,0.0,0.0,0.0,0.0,0.0,0.0,0.0,0.0,0.0,0.0,0.0,0.0,0.0,0.0,0.0,0.0,0.0,0.0,0.0,0.0,0.0,0.0,0.0,0.0,0.0,0.0,0.0,0.0,0.0,0.0,0.0,0.0,0.0,0.0,0.0,0.0,0.0,0.0,0.0,0.0,0.0,0.0,0.0,0.0,0.0,0.0,0.0,0.0,0.0,0.0,0.0,0.0,0.0,0.0,0.0,0.0,0.0,0.0,0.0,0.0,0.0,0.0,0.0,0.0,0.0,0.0,0.0,0.0,0.0
361699507625,1,361699507625,camera_init,body,-0.00784400056004402,0.010319318641674841,0.015894252667419118,-0.0010321527769944657,0.0007377076172014256,-0.001309557223294016,0.9999983377526168,1.5851144841150244e-08,-4.017597194232699e-10,4.119681704768067e-09,-1.7715840781667123e-09,2.5107308676552975e-08,-5.020592010272079e-09,-4.017595182829881e-10,9.405986212129847e-09,-1.991920831945765e-09,-3.512833318675135e-08,1.5097506844299706e-08,6.017353802669108e-08,4.11968135191447e-09,-1.991921528708609e-09,1.8917953203967386e-08,1.2456721875026867e-08,-1.1319245253409681e-07,-1.4440320783083083e-08,-1.771585998214221e-09,-3.512833171570584e-08,1.2456723176232105e-08,1.8153329595094192e-07,-1.0666320271984841e-07,-2.233221392904908e-07,2.510730376381609e-08,1.5097506729157436e-08,-1.1319239974385935e-07,-1.0666320336426202e-07,8.84034096815256e-07,1.0038809164009181e-07,-5.020591439331215e-09,6.017354526786055e-08,-1.4440312026326667e-08,-2.2332213576276797e-07,1.0038809090584977e-07,4.5831191353151723e-07,0.0,0.0,0.0,0.0,0.0,0.0,0.0,0.0,0.0,0.0,0.0,0.0,0.0,0.0,0.0,0.0,0.0,0.0,0.0,0.0,0.0,0.0,0.0,0.0,0.0,0.0,0.0,0.0,0.0,0.0,0.0,0.0,0.0,0.0,0.0,0.0,0.0,0.0,0.0,0.0,0.0,0.0
361799224894,2,361799224894,camera_init,body,-0.006336830496267003,0.007741002698784489,0.012802248073482726,-0.0007303718185241478,0.0002736932451913581,-0.0004024512185930244,0.9999996148409416,1.5270152513334814e-08,4.0091190262724195e-10,5.450548288678422e-09,-4.017231808827954e-09,1.596859453341962e-08,3.4322567074361664e-09,4.009119026046555e-10,1.0974204134411001e-08,-8.693775865466293e-10,-4.182268997793956e-08,1.0601527581454481e-08,6.857347383950944e-08,5.450548288473303e-09,-8.693775865918907e-10,1.700134378114851e-08,6.500402554003064e-09,-9.338934850653654e-08,-6.217022253139705e-09,-4.0172318092732025e-09,-4.1822689979414615e-08,6.500402554558466e-09,2.0523194660913846e-07,-7.492221297126128e-08,-2.6219880695557526e-07,1.5968594532539234e-08,1.0601527581820965e-08,-9.338934851301547e-08,-7.492221296991243e-08,7.061894218146625e-07,7.51477980955986e-08,3.432256707633118e-09,6.857347384385583e-08,-6.217022252923203e-09,-2.621988069499314e-07,7.514779809413894e-08,5.12731614908668e-07,0.0,0.0,0.0,0.0,0.0,0.0,0.0,0.0,0.0,0.0,0.0,0.0,0.0,0.0,0.0,0.0,0.0,0.0,0.0,0.0,0.0,0.0,0.0,0.0,0.0,0.0,0.0,0.0,0.0,0.0,0.0,0.0,0.0,0.0,0.0,0.0,0.0,0.0,0.0,0.0,0.0,0.0
361898023217,3,361898023217,camera_init,body,-0.006211900358029901,0.0035237253635137366,0.01568239241833958,-0.001357461569235916,0.000566506629300467,-0.0008505137036531592,0.9999985564963418,1.7198532887365047e-08,7.544413649128777e-10,5.510390401603223e-09,-5.8700844215529595e-09,2.3166013769776877e-08,4.7277027344447955e-09,7.544413646639287e-10,8.991743337237327e-09,-5.15388533642844e-10,-3.404391114840341e-08,8.817811637482736e-09,5.5865299545382575e-08,5.5103904013836545e-09,-5.153885338378551e-10,1.6723444462804515e-08,3.4910855803683542e-09,-9.317490773174911e-08,-4.518708634749957e-09,-5.870084420752381e-09,-3.4043911151821396e-08,3.4910855790212658e-09,1.7648598420627931e-07,-6.043600317029045e-08,-2.114068463239493e-07,2.3166013769119685e-08,8.817811640156675e-09,-9.317490772922855e-08,-6.043600318298377e-08,7.488076087638543e-07,6.439129863426204e-08,4.727702732640678e-09,5.586529954317134e-08,-4.518708633862533e-09,-2.1140684628741125e-07,6.439129861848308e-08,4.2366354440202107e-07,0.0,0.0,0.0,0.0,0.0,0.0,0.0,0.0,0.0,0.0,0.0,0.0,0.0,0.0,0.0,0.0,0.0,0.0,0.0,0.0,0.0,0.0,0.0,0.0,0.0,0.0,0.0,0.0,0.0,0.0,0.0,0.0,0.0,0.0,0.0,0.0,0.0,0.0,0.0,0.0,0.0,0.0
361996496537,4,361996496537,camera_init,body,-0.006606332365537097,-0.009268945998601192,0.021275050193542443,-0.00082147347566483,0.000835886536636381,0.0001290161094552313,0.9999993049146939,1.6790424655762303e-08,2.083542681269037e-10,6.381622510697903e-09,-3.4214835922984704e-09,1.4649898408853158e-08,3.296517439820486e-09,2.0835426808924588e-10,8.718220355941075e-09,-5.361709922726639e-10,-3.2383176526916706e-08,6.8681129369821155e-09,5.4449684282093384e-08,6.3816225107056115e-09,-5.36170992456431e-10,1.4114022615239672e-08,3.1914813396874308e-09,-7.114472022684861e-08,-3.4726109518170478e-09,-3.4214835922017365e-09,-3.2383176526198846e-08,3.1914813391672227e-09,1.6680036480552906e-07,-4.874522734497297e-08,-2.0381646512283203e-07,1.4649898409313415e-08,6.86811293838612e-09,-7.114472022711988e-08,-4.874522735060227e-08,5.558930419736412e-07,5.121964312884748e-08,3.2965174395051734e-09,5.444968428219318e-08,-3.472610950440194e-09,-2.0381646512388468e-07,5.1219643118369076e-08,4.22013413761925e-07,0.0,0.0,0.0,0.0,0.0,0.0,0.0,0.0,0.0,0.0,0.0,0.0,0.0,0.0,0.0,0.0,0.0,0.0,0.0,0.0,0.0,0.0,0.0,0.0,0.0,0.0,0.0,0.0,0.0,0.0,0.0,0.0,0.0,0.0,0.0,0.0,0.0,0.0,0.0,0.0,0.0,0.0
362095147034,5,362095147034,camera_init,body,-0.007164959448063714,-0.01673534266972971,0.023950534135177882,-0.00343610247538406,0.0009727458064207466,-0.0011475314693888822,0.9999929650437059,1.468596055438046e-08,-5.171049549000285e-10,5.579927475854512e-09,-2.8539662244890305e-10,1.1803154388192387e-08,-3.4595767580718823e-09,-5.171049548803881e-10,8.326873774233809e-09,-1.1736788751250797e-09,-3.133565587596863e-08,8.376058602624795e-09,4.976742478277374e-08,5.5799274757779954e-09,-1.1736788751270633e-09,1.350595828862708e-08,6.44196946064927e-09,-6.955173234495727e-08,-7.652087109760272e-09,-2.8539662269141917e-10,-3.1335655874780876e-08,6.4419694608849475e-09,1.6142643830487112e-07,-5.684077931519833e-08,-1.8821993676141915e-07,1.1803154388389745e-08,8.376058602984524e-09,-6.955173234470153e-08,-5.684077931636823e-08,5.285593011021068e-07,5.420929496630755e-08,-3.4595767579040383e-09,4.9767424783435465e-08,-7.652087109701494e-09,-1.8821993676441024e-07,5.420929496543901e-08,3.831280608704868e-07,0.0,0.0,0.0,0.0,0.0,0.0,0.0,0.0,0.0,0.0,0.0,0.0,0.0,0.0,0.0,0.0,0.0,0.0,0.0,0.0,0.0,0.0,0.0,0.0,0.0,0.0,0.0,0.0,0.0,0.0,0.0,0.0,0.0,0.0,0.0,0.0,0.0,0.0,0.0,0.0,0.0,0.0
362199159715,6,362199159715,camera_init,body,-0.009701515767555768,-0.022186728270933726,0.029460512801896165,-0.002690762209481288,0.0013025605606662456,-0.000625378272849801,0.9999953360074906,1.7026149682357772e-08,-7.554637446771723e-10,7.504124797560986e-09,9.887900794785038e-10,7.760738127705822e-09,-7.2160595427518e-09,-7.554637446749634e-10,9.458757577891482e-09,-1.6541823508071406e-09,-3.587929265417636e-08,1.1458257864646207e-08,5.863000643480904e-08,7.504124797404334e-09,-1.654182350769338e-09,1.6341650158699513e-08,1.0170359810062371e-08,-8.305890183502604e-08,-1.1077174599431633e-08,9.887900793639835e-10,-3.587929265403967e-08,1.017035981051609e-08,1.8542124832342805e-07,-7.980061068399333e-08,-2.238829067934135e-07,7.760738128823376e-09,1.1458257864682009e-08,-8.30589018373788e-08,-7.9800610684909e-08,6.194244742885295e-07,6.841434952265424e-08,-7.216059542728427e-09,5.863000643443936e-08,-1.1077174599631653e-08,-2.2388290679263636e-07,6.841434952200605e-08,4.4470273330771756e-07,0.0,0.0,0.0,0.0,0.0,0.0,0.0,0.0,0.0,0.0,0.0,0.0,0.0,0.0,0.0,0.0,0.0,0.0,0.0,0.0,0.0,0.0,0.0,0.0,0.0,0.0,0.0,0.0,0.0,0.0,0.0,0.0,0.0,0.0,0.0,0.0,0.0,0.0,0.0,0.0,0.0,0.0
362299315485,7,362299315485,camera_init,body,-0.00959853391881192,-0.02681248856898115,0.03663039536835768,-0.0032191993919122837,0.0012169415472983226,-0.0005833940553279421,0.9999939077114034,1.7507835811742998e-08,-1.1105092872571653e-09,6.651483532325336e-09,1.4527845348449132e-09,1.4318386154601731e-08,-7.650260176411655e-09,-1.11050928729471e-09,7.847582639627796e-09,-1.318419135037265e-09,-2.9601651460684657e-08,8.35689353420049e-09,4.906649757844317e-08,6.651483532148724e-09,-1.3184191350489712e-09,1.3903092930408708e-08,9.32788661441794e-09,-6.741602416223843e-08,-9.911071527797332e-09,1.4527845351544721e-09,-2.9601651460819335e-08,9.32788661403426e-09,1.5861089603313718e-07,-7.409481027718092e-08,-1.8680145569173087e-07,1.4318386152365352e-08,8.356893534330577e-09,-6.741602416055527e-08,-7.409481027798401e-08,5.171396419194714e-07,6.251132707705074e-08,-7.65026017654505e-09,4.906649757805189e-08,-9.911071527576034e-09,-1.8680145569049315e-07,6.25113270758007e-08,3.8926677342707304e-07,0.0,0.0,0.0,0.0,0.0,0.0,0.0,0.0,0.0,0.0,0.0,0.0,0.0,0.0,0.0,0.0,0.0,0.0,0.0,0.0,0.0,0.0,0.0,0.0,0.0,0.0,0.0,0.0,0.0,0.0,0.0,0.0,0.0,0.0,0.0,0.0,0.0,0.0,0.0,0.0,0.0,0.0
362399172883,8,362399172883,camera_init,body,-0.003179063215454126,-0.027488896066470647,0.03123473799168798,-0.002994524015482847,0.0007846162283403928,-0.00029952215521949767,0.9999951637331926,1.6465943757143682e-08,-1.3972466013097529e-09,5.5432842509622385e-09,7.516778673572553e-10,1.4987368857673572e-08,-1.0152873632356527e-08,-1.3972466013072374e-09,8.887224047936411e-09,-1.873015118933419e-09,-3.2504260464616313e-08,1.1649683029735419e-08,5.634641561265896e-08,5.543284251014979e-09,-1.8730151189961386e-09,1.3864497683726954e-08,9.94258501913448e-09,-7.211412117540711e-08,-1.1813599685965546e-08,7.516778675506115e-10,-3.250426046520458e-08,9.942585018814683e-09,1.6996112354738283e-07,-8.252493027724237e-08,-2.0559176722958503e-07,1.4987368857241162e-08,1.1649683029710117e-08,-7.211412117579033e-08,-8.25249302782149e-08,5.520890270872047e-07,6.907234784120756e-08,-1.0152873632454869e-08,5.634641561223687e-08,-1.1813599685683527e-08,-2.055917672279996e-07,6.907234783936109e-08,4.3632334241834103e-07,0.0,0.0,0.0,0.0,0.0,0.0,0.0,0.0,0.0,0.0,0.0,0.0,0.0,0.0,0.0,0.0,0.0,0.0,0.0,0.0,0.0,0.0,0.0,0.0,0.0,0.0,0.0,0.0,0.0,0.0,0.0,0.0,0.0,0.0,0.0,0.0,0.0,0.0,0.0,0.0,0.0,0.0
362498574025,9,362498574025,camera_init,body,-0.002937215266021902,-0.024433415105886574,0.03257220304611139,-0.0032561696886174237,0.0010614908880905347,-0.00037030317463352644,0.9999940667182046,1.8195137199874926e-08,-5.478524925703534e-10,8.022239163837547e-09,-1.758767956804237e-09,9.209929724033462e-09,-7.072967011343977e-09,-5.478524925906783e-10,1.0088603681027587e-08,-2.010749726409713e-09,-3.859630453850689e-08,1.541183368569679e-08,6.081905900846846e-08,8.022239163871078e-09,-2.0107497264865153e-09,1.691303789330505e-08,1.0476220441800568e-08,-8.193638426840913e-08,-1.4397451461736673e-08,-1.7587679565307056e-09,-3.859630453875666e-08,1.0476220441329624e-08,2.0077302267929397e-07,-9.707206716463773e-08,-2.3393392542643797e-07,9.20992972244591e-09,1.541183368629787e-08,-8.193638426578035e-08,-9.707206716535368e-08,6.012492040231238e-07,9.673994910166527e-08,-7.072967011457055e-09,6.081905900803256e-08,-1.4397451461717208e-08,-2.3393392542503486e-07,9.673994910018583e-08,4.54316965084139e-07,0.0,0.0,0.0,0.0,0.0,0.0,0.0,0.0,0.0,0.0,0.0,0.0,0.0,0.0,0.0,0.0,0.0,0.0,0.0,0.0,0.0,0.0,0.0,0.0,0.0,0.0,0.0,0.0,0.0,0.0,0.0,0.0,0.0,0.0,0.0,0.0,0.0,0.0,0.0,0.0,0.0,0.0
362599526337,10,362599526337,camera_init,body,-0.0035613728434702127,-0.021775112774034915,0.026655517228730524,-0.0039761003843983185,0.0010045255899721896,-0.0009361933462523634,0.9999911525089067,1.5676547210627726e-08,1.6752023824985135e-10,5.78913910376917e-09,-3.236854270685366e-09,1.5391983832331236e-08,1.8641522024524134e-11,1.675202382777137e-10,9.452385786985979e-09,-1.5263750702949515e-09,-3.680017769681591e-08,1.3986476615014203e-08,5.804222109396048e-08,5.789139103782294e-09,-1.5263750702582326e-09,1.3023005126925388e-08,8.496710043560832e-09,-6.543062416708991e-08,-9.971398718927638e-09,-3.236854270748417e-09,-3.680017769589031e-08,8.496710043756169e-09,1.9041995695468764e-07,-8.71409167018437e-08,-2.2602635373282921e-07,1.5391983832970216e-08,1.3986476614834993e-08,-6.543062416753167e-08,-8.714091670225655e-08,5.164339401412477e-07,8.728376032226078e-08,1.864152208324403e-11,5.804222109383145e-08,-9.971398719034118e-09,-2.2602635373194687e-07,8.728376032140793e-08,4.279278774816765e-07,0.0,0.0,0.0,0.0,0.0,0.0,0.0,0.0,0.0,0.0,0.0,0.0,0.0,0.0,0.0,0.0,0.0,0.0,0.0,0.0,0.0,0.0,0.0,0.0,0.0,0.0,0.0,0.0,0.0,0.0,0.0,0.0,0.0,0.0,0.0,0.0,0.0,0.0,0.0,0.0,0.0,0.0
362699462938,11,362699462938,camera_init,body,-0.011248402593386247,-0.0089619146032777,0.027563126676656863,-0.0031854533177695294,0.0011778236911537338,-0.001201891692368214,0.9999935105163796,1.9122054246932248e-08,-7.020445263272094e-10,8.53790946606955e-09,2.568458837447453e-10,1.03299444428496e-08,-5.37430850703574e-09,-7.020445263366327e-10,8.9624325314339e-09,-1.3034515347337808e-09,-3.487704083236394e-08,9.908147003056455e-09,5.2804272841869284e-08,8.537909465806067e-09,-1.303451534741973e-09,1.442391973466669e-08,8.92529949556532e-09,-6.32895074997029e-08,-9.021518131747086e-09,2.568458839898861e-10,-3.487704083315253e-08,8.925299495217943e-09,1.8387000269332429e-07,-7.84556944839118e-08,-2.081903480740672e-07,1.0329944441820243e-08,9.90814700317099e-09,-6.328950749773426e-08,-7.845569448423044e-08,4.797361498056914e-07,6.452367982742845e-08,-5.3743085070164336e-09,5.280427284174968e-08,-9.021518131811682e-09,-2.0819034807340647e-07,6.452367982682391e-08,3.925517936765663e-07,0.0,0.0,0.0,0.0,0.0,0.0,0.0,0.0,0.0,0.0,0.0,0.0,0.0,0.0,0.0,0.0,0.0,0.0,0.0,0.0,0.0,0.0,0.0,0.0,0.0,0.0,0.0,0.0,0.0,0.0,0.0,0.0,0.0,0.0,0.0,0.0,0.0,0.0,0.0,0.0,0.0,0.0
362799298641,12,362799298641,camera_init,body,-0.01403617567185253,-0.005038877314114647,0.027023479520869094,-0.0022081592623746068,0.001128011802456108,-0.0006860691841583636,0.9999966904600833,1.328497721203646e-08,-5.643792338328493e-10,5.53459216402706e-09,1.6726203229773497e-09,8.061457681866206e-09,-6.6240660110837055e-09,-5.643792338253401e-10,8.213351828294062e-09,-1.6552070788835493e-09,-3.015502339557037e-08,1.0974984695123776e-08,5.04672804908763e-08,5.534592163998675e-09,-1.6552070788540984e-09,1.5068763567138905e-08,1.0170559856622985e-08,-7.970995368294491e-08,-1.1588889008376965e-08,1.672620323105497e-09,-3.0155023395947297e-08,1.0170559856441082e-08,1.5778239747291362e-07,-7.448575081797711e-08,-1.8689373357500677e-07,8.061457681857948e-09,1.097498469496252e-08,-7.970995368344185e-08,-7.448575081821907e-08,5.829433690116387e-07,6.607938119881037e-08,-6.6240660110090144e-09,5.0467280490959706e-08,-1.1588889008304165e-08,-1.868937335745074e-07,6.607938119835093e-08,3.888047650421704e-07,0.0,0.0,0.0,0.0,0.0,0.0,0.0,0.0,0.0,0.0,0.0,0.0,0.0,0.0,0.0,0.0,0.0,0.0,0.0,0.0,0.0,0.0,0.0,0.0,0.0,0.0,0.0,0.0,0.0,0.0,0.0,0.0,0.0,0.0,0.0,0.0,0.0,0.0,0.0,0.0,0.0,0.0
362899101897,13,362899101897,camera_init,body,-0.012183778163310703,0.00038919656203849264,0.029901180401192502,-0.002743167497464028,0.0011817271255534422,-0.001431674559274616,0.999994514415473,1.4746045845533801e-08,-1.0182431841355148e-09,5.678689279128438e-09,1.7149787711547304e-09,1.2203540670095487e-08,-6.63010008900737e-09,-1.0182431841545581e-09,8.196438345669252e-09,-1.6268819908230822e-09,-3.207892759733831e-08,1.0037061587965057e-08,4.8647830822656145e-08,5.6786892791098425e-09,-1.6268819908987334e-09,1.3764764642294346e-08,8.693118473259069e-09,-7.285870066208075e-08,-9.926411010138264e-09,1.714978771482865e-09,-3.2078927598777204e-08,8.693118472594608e-09,1.689953208183315e-07,-6.825241619207872e-08,-1.904729244397585e-07,1.2203540668911865e-08,1.0037061588553727e-08,-7.285870066069938e-08,-6.825241619228145e-08,5.64639837410887e-07,5.986212847186875e-08,-6.630100089056476e-09,4.864783082407807e-08,-9.92641101000481e-09,-1.9047292443932846e-07,5.986212847150641e-08,3.6273959816706137e-07,0.0,0.0,0.0,0.0,0.0,0.0,0.0,0.0,0.0,0.0,0.0,0.0,0.0,0.0,0.0,0.0,0.0,0.0,0.0,0.0,0.0,0.0,0.0,0.0,0.0,0.0,0.0,0.0,0.0,0.0,0.0,0.0,0.0,0.0,0.0,0.0,0.0,0.0,0.0,0.0,0.0,0.0
362999759140,14,362999759140,camera_init,body,-0.012622543290437752,0.000212789159185248,0.03877419916166131,-0.0018084587738232936,0.0015767998190354365,-0.0010335989220234918,0.9999965874204082,1.7902364973775302e-08,-1.5955986180343089e-09,7.163336702737642e-09,3.708865578865046e-09,1.5899167397616826e-08,-1.1415682584737925e-08,-1.5955986180268456e-09,9.313320957597953e-09,-2.041187971198344e-09,-3.808637776039252e-08,1.15061135553377e-08,5.638361834266451e-08,7.163336702834221e-09,-2.04118797119181e-09,1.492357504496403e-08,1.2564186137357186e-08,-7.276639435698732e-08,-1.335018389848824e-08,3.7088655787963505e-09,-3.808637776037886e-08,1.2564186137691999e-08,2.072891429539335e-07,-9.191563938428588e-08,-2.3087393174344698e-07,1.589916739763779e-08,1.150611355545889e-08,-7.276639435821905e-08,-9.191563938456221e-08,5.72432774198264e-07,7.05673916503718e-08,-1.1415682584936415e-08,5.638361834273615e-08,-1.3350183898445686e-08,-2.30873931742946e-07,7.05673916498909e-08,4.1870793755677593e-07,0.0,0.0,0.0,0.0,0.0,0.0,0.0,0.0,0.0,0.0,0.0,0.0,0.0,0.0,0.0,0.0,0.0,0.0,0.0,0.0,0.0,0.0,0.0,0.0,0.0,0.0,0.0,0.0,0.0,0.0,0.0,0.0,0.0,0.0,0.0,0.0,0.0,0.0,0.0,0.0,0.0,0.0
363099050371,15,363099050371,camera_init,body,-0.010997604169451513,-0.006537744842400693,0.043368216513236975,-0.0018194342438589241,0.001620657469103539,-0.0006301175016405023,0.9999968330351521,1.7561031842107703e-08,-7.581729594254325e-10,6.147649925483736e-09,5.843273035052218e-10,2.051728451334471e-08,-6.0883118175614015e-09,-7.581729594361917e-10,8.689795547989611e-09,-1.163994951569968e-09,-3.482532980931695e-08,8.09932786956247e-09,5.333157262096015e-08,6.147649925217616e-09,-1.1639949515754471e-09,1.6465946115324065e-08,8.593406594104201e-09,-9.037222276420863e-08,-8.346278030235825e-09,5.843273032930798e-10,-3.4825329809191166e-08,8.59340659427739e-09,1.8679122970373478e-07,-7.334253070988324e-08,-2.1528776544682704e-07,2.051728451497186e-08,8.099327869661686e-09,-9.037222276769843e-08,-7.334253071011617e-08,7.290628182060437e-07,5.4326370981155345e-08,-6.0883118173734115e-09,5.3331572620702395e-08,-8.346278030286345e-09,-2.1528776544646435e-07,5.432637098081035e-08,4.1000840245377617e-07,0.0,0.0,0.0,0.0,0.0,0.0,0.0,0.0,0.0,0.0,0.0,0.0,0.0,0.0,0.0,0.0,0.0,0.0,0.0,0.0,0.0,0.0,0.0,0.0,0.0,0.0,0.0,0.0,0.0,0.0,0.0,0.0,0.0,0.0,0.0,0.0,0.0,0.0,0.0,0.0,0.0,0.0
363197335873,16,363197335873,camera_init,body,-0.013525025076545277,-0.0038206859625273424,0.047918272111774095,-0.0015927570301226648,0.0018910601225615707,-0.0009701017126559285,0.9999964729534411,2.0204317658776194e-08,-1.5878832801494763e-09,8.766111441149181e-09,4.46464844346242e-09,1.5300823807164383e-08,-6.853861863665902e-09,-1.5878832801446977e-09,9.863296585930332e-09,-1.887566039892732e-09,-3.849328004160902e-08,8.950088844975023e-09,5.94696838580207e-08,8.766111440884566e-09,-1.8875660398798992e-09,1.6677695936580706e-08,9.87099743027131e-09,-7.879111941628825e-08,-1.0191008576272214e-08,4.464648443471942e-09,-3.849328004093637e-08,9.870997430418653e-09,1.9742248236226501e-07,-6.425457461660538e-08,-2.339718820544409e-07,1.530082380727926e-08,8.95008884497879e-09,-7.879111941598324e-08,-6.425457461678358e-08,6.165361076736925e-07,5.64013399902571e-08,-6.853861863822095e-09,5.9469683857433106e-08,-1.0191008576077819e-08,-2.3397188205407958e-07,5.640133998996772e-08,4.460802357904643e-07,0.0,0.0,0.0,0.0,0.0,0.0,0.0,0.0,0.0,0.0,0.0,0.0,0.0,0.0,0.0,0.0,0.0,0.0,0.0,0.0,0.0,0.0,0.0,0.0,0.0,0.0,0.0,0.0,0.0,0.0,0.0,0.0,0.0,0.0,0.0,0.0,0.0,0.0,0.0,0.0,0.0,0.0
363296148775,17,363296148775,camera_init,body,-0.016176567099645184,-0.004177739770459609,0.05252659206957787,-0.0024366998611367735,0.002216241614376344,-0.0013084811504466669,0.9999937193022622,1.6946580331053283e-08,-4.427772674754109e-10,7.158705731222985e-09,-1.320645335733822e-09,1.20946250180464e-08,-3.862997591038711e-09,-4.4277726749032434e-10,8.98681458970271e-09,-1.5243805175790379e-09,-3.559885153108488e-08,1.1624252721941083e-08,5.817531197989053e-08,7.1587057310758665e-09,-1.5243805176064688e-09,1.514539413294372e-08,7.538558747565675e-09,-7.409911732235053e-08,-1.0618093933754799e-08,-1.3206453359242515e-09,-3.5598851531695064e-08,7.53855874782691e-09,1.84379969207155e-07,-7.077088224198503e-08,-2.3020819248890265e-07,1.2094625018158844e-08,1.1624252721989589e-08,-7.409911732190945e-08,-7.077088224211438e-08,5.660325004759418e-07,7.79805512038699e-08,-3.8629975912212385e-09,5.8175311979412636e-08,-1.061809393328747e-08,-2.3020819248860032e-07,7.798055120362732e-08,4.608400871952762e-07,0.0,0.0,0.0,0.0,0.0,0.0,0.0,0.0,0.0,0.0,0.0,0.0,0.0,0.0,0.0,0.0,0.0,0.0,0.0,0.0,0.0,0.0,0.0,0.0,0.0,0.0,0.0,0.0,0.0,0.0,0.0,0.0,0.0,0.0,0.0,0.0,0.0,0.0,0.0,0.0,0.0,0.0
363394834360,18,363394834360,camera_init,body,-0.019262933405078154,-0.00678625429198155,0.05311331656534771,-0.002795155103018581,0.002170399004288205,-0.0013789582684996745,0.9999927874490918,1.6087025595464574e-08,-1.4356140560440843e-09,6.617527827759949e-09,3.130941569297746e-09,1.0990642544759308e-08,-1.115985437908704e-08,-1.4356140560214334e-09,8.666943255909471e-09,-1.8793578299009456e-09,-3.2172056424685534e-08,1.016141634273028e-08,5.3410510443001186e-08,6.617527827805274e-09,-1.879357829931024e-09,1.2821323938438456e-08,8.627417412656375e-09,-6.242320211869537e-08,-1.2835967586940775e-08,3.130941569467189e-09,-3.217205642570028e-08,8.627417412443323e-09,1.6707768083210165e-07,-6.291529255798411e-08,-1.9991879552682096e-07,1.0990642545629952e-08,1.0161416342783941e-08,-6.242320211998486e-08,-6.291529255808295e-08,4.903844879664775e-07,6.379794529504925e-08,-1.1159854379036932e-08,5.3410510443228515e-08,-1.2835967587057961e-08,-1.999187955265724e-07,6.379794529485859e-08,4.088782996732948e-07,0.0,0.0,0.0,0.0,0.0,0.0,0.0,0.0,0.0,0.0,0.0,0.0,0.0,0.0,0.0,0.0,0.0,0.0,0.0,0.0,0.0,0.0,0.0,0.0,0.0,0.0,0.0,0.0,0.0,0.0,0.0,0.0,0.0,0.0,0.0,0.0,0.0,0.0,0.0,0.0,0.0,0.0
363499292617,19,363499292617,camera_init,body,-0.024261954834733875,-0.009520658589838577,0.05882127744509922,-0.0034105348752838842,0.0026400718049097794,-0.0014869914587706922,0.9999895935104163,1.5003369425499067e-08,-1.0233190605873035e-09,6.494552154626562e-09,1.5126012537298634e-09,6.212071830942811e-09,-4.5115293576593176e-09,-1.0233190605550937e-09,8.37359379539615e-09,-1.6424520112521698e-09,-3.214263295163711e-08,1.0448791302102056e-08,5.1158528282187045e-08,6.494552154629765e-09,-1.6424520112584311e-09,1.292948263693439e-08,8.216415501409052e-09,-6.277317277802096e-08,-9.651684905550011e-09,1.5126012535643059e-09,-3.21426329509274e-08,8.216415501588694e-09,1.6735840841244383e-07,-6.54229055020728e-08,-1.9724402017087122e-07,6.212071832363709e-09,1.0448791302154765e-08,-6.277317277956361e-08,-6.542290550215983e-08,4.620961717155033e-07,6.896148537294398e-08,-4.511529357486012e-09,5.1158528282311016e-08,-9.651684905767502e-09,-1.972440201706467e-07,6.896148537277419e-08,3.958784813746639e-07,0.0,0.0,0.0,0.0,0.0,0.0,0.0,0.0,0.0,0.0,0.0,0.0,0.0,0.0,0.0,0.0,0.0,0.0,0.0,0.0,0.0,0.0,0.0,0.0,0.0,0.0,0.0,0.0,0.0,0.0,0.0,0.0,0.0,0.0,0.0,0.0,0.0,0.0,0.0,0.0,0.0,0.0
363599175915,20,363599175915,camera_init,body,-0.024757284006967906,-0.015407444829977536,0.059194329068329964,-0.0037622387641397287,0.0028408488342671497,-0.0013734034175298501,0.9999879443775466,1.83536303727659e-08,-1.9065774995535626e-09,6.249376767303021e-09,3.427762888351274e-09,1.8790326153618944e-08,-1.4752010827486883e-08,-1.9065774995325973e-09,9.20780031984491e-09,-1.848032242436013e-09,-3.4900027727467014e-08,9.494249430356728e-09,5.783640524859747e-08,6.249376767354359e-09,-1.8480322424123638e-09,1.381291721964489e-08,1.0515029295153279e-08,-6.84163822489346e-08,-1.2154157008676719e-08,3.4277628884563834e-09,-3.490002772777078e-08,1.0515029295128726e-08,1.8342919288047574e-07,-7.539215450704303e-08,-2.1863531201418674e-07,1.8790326153507453e-08,9.49424943026214e-09,-6.841638225022882e-08,-7.539215450717147e-08,5.423609211022325e-07,5.5300985508469165e-08,-1.4752010827549416e-08,5.783640524982076e-08,-1.2154157008794407e-08,-2.1863531201392638e-07,5.530098550824007e-08,4.4240784520224094e-07,0.0,0.0,0.0,0.0,0.0,0.0,0.0,0.0,0.0,0.0,0.0,0.0,0.0,0.0,0.0,0.0,0.0,0.0,0.0,0.0,0.0,0.0,0.0,0.0,0.0,0.0,0.0,0.0,0.0,0.0,0.0,0.0,0.0,0.0,0.0,0.0,0.0,0.0,0.0,0.0,0.0,0.0
363699674953,21,363699674953,camera_init,body,-0.030462339482423023,-0.013240454899727656,0.0641548876581889,-0.004030434272684227,0.0033711610698565295,-0.0017460559798061863,0.9999846709630733,1.6755520499496177e-08,-9.13844699617883e-10,6.258728646220224e-09,1.7146273119420053e-09,1.4090252228828495e-08,-6.088533342800993e-09,-9.138446995948023e-10,9.743761101161904e-09,-1.9962894445741648e-09,-3.5451657365040276e-08,1.302370632262074e-08,6.137066795901381e-08,6.258728645953852e-09,-1.9962894445200287e-09,1.4824521932538129e-08,1.1244794552849994e-08,-7.544446567472391e-08,-1.3030033204996016e-08,1.714627311750133e-09,-3.545165736379228e-08,1.1244794553151913e-08,1.8145233126408419e-07,-8.640217843032293e-08,-2.2406564712402236e-07,1.4090252230067598e-08,1.302370632245053e-08,-7.544446567691685e-08,-8.640217843041632e-08,5.729498599557415e-07,8.47879097736607e-08,-6.088533342517816e-09,6.137066795897781e-08,-1.3030033205421215e-08,-2.2406564712378842e-07,8.47879097734674e-08,4.716744142180606e-07,0.0,0.0,0.0,0.0,0.0,0.0,0.0,0.0,0.0,0.0,0.0,0.0,0.0,0.0,0.0,0.0,0.0,0.0,0.0,0.0,0.0,0.0,0.0,0.0,0.0,0.0,0.0,0.0,0.0,0.0,0.0,0.0,0.0,0.0,0.0,0.0,0.0,0.0,0.0,0.0,0.0,0.0
363798925096,22,363798925096,camera_init,body,-0.029624928080957402,-0.008947692474477062,0.06503021840819824,-0.004444923265619855,0.0030958996232750787,-0.0021702251347983613,0.9999829739478304,1.719044802829566e-08,-6.948139313399358e-10,6.49337631165586e-09,1.0672189676400565e-09,1.685052237288771e-08,-5.701688592455538e-09,-6.948139313428832e-10,9.906883878519051e-09,-2.392087079404015e-09,-3.830398282965031e-08,1.5885008524229418e-08,5.964078424825274e-08,6.4933763115813556e-09,-2.392087079461597e-09,1.3245246887916848e-08,1.1643795421768356e-08,-6.359982782411455e-08,-1.4486097157507946e-08,1.0672189676780893e-09,-3.8303982828795545e-08,1.164379542181916e-08,1.9677900747565785e-07,-8.983179768074356e-08,-2.3066862657503535e-07,1.6850522373575924e-08,1.5885008524131566e-08,-6.359982782491397e-08,-8.983179768082125e-08,5.078523714199896e-07,9.20293079003055e-08,-5.701688592656102e-09,5.964078424817279e-08,-1.448609715717931e-08,-2.3066862657483598e-07,9.202930790014992e-08,4.443054797051833e-07,0.0,0.0,0.0,0.0,0.0,0.0,0.0,0.0,0.0,0.0,0.0,0.0,0.0,0.0,0.0,0.0,0.0,0.0,0.0,0.0,0.0,0.0,0.0,0.0,0.0,0.0,0.0,0.0,0.0,0.0,0.0,0.0,0.0,0.0,0.0,0.0,0.0,0.0,0.0,0.0,0.0,0.0
363899462880,23,363899462880,camera_init,body,-0.02465484461149343,-0.005966565648110156,0.05949931252558746,-0.0028002418158443476,0.002724248744304951,-0.001138202430265216,0.9999917207706162,1.7539482665473245e-08,-3.7078804622926643e-10,7.803413698580171e-09,1.0575108698337966e-09,7.28614012442261e-09,-5.638056838138236e-09,-3.707880462312521e-10,1.0017904376699745e-08,-1.493343431169717e-09,-3.7042237956017005e-08,1.1569000914980733e-08,6.04478633887999e-08,7.803413698643189e-09,-1.4933434312075856e-09,1.424482133923719e-08,9.272576082775001e-09,-6.711131204666173e-08,-1.102695504184496e-08,1.0575108698714081e-09,-3.704223795668849e-08,9.272576082599179e-09,1.8578775803737495e-07,-7.436717444622804e-08,-2.2590566841498023e-07,7.286140123511838e-09,1.1569000915169971e-08,-6.711131204384176e-08,-7.436717444629628e-08,5.016467175553059e-07,7.241840752652574e-08,-5.638056838173989e-09,6.044786338950987e-08,-1.1026955041552342e-08,-2.259056684147834e-07,7.241840752638929e-08,4.5783363071312774e-07,0.0,0.0,0.0,0.0,0.0,0.0,0.0,0.0,0.0,0.0,0.0,0.0,0.0,0.0,0.0,0.0,0.0,0.0,0.0,0.0,0.0,0.0,0.0,0.0,0.0,0.0,0.0,0.0,0.0,0.0,0.0,0.0,0.0,0.0,0.0,0.0,0.0,0.0,0.0,0.0,0.0,0.0
363999331543,24,363999331543,camera_init,body,-0.019142939063191342,-0.00012016309678311278,0.056103764415671206,-0.0023760377256447484,0.002481269702107201,-0.001451851171768902,0.9999930449125958,1.4549368226254324e-08,-1.5986396960310497e-10,6.319114202900979e-09,-5.207376494836233e-10,8.693060261462279e-09,-2.5569893202649192e-09,-1.598639695911631e-10,9.782292952563963e-09,-1.6003075180119084e-09,-3.8953189304847994e-08,1.3111774915951038e-08,5.984748027953474e-08,6.319114202968293e-09,-1.6003075179815217e-09,1.4971916209267162e-08,9.737061206899596e-09,-7.823918671826925e-08,-1.0322132358985244e-08,-5.20737649570106e-10,-3.89531893045455e-08,9.737061207140252e-09,2.0811343276015668e-07,-8.834437280027093e-08,-2.402697847721151e-07,8.69306026041757e-09,1.311177491610366e-08,-7.823918671799371e-08,-8.834437280036295e-08,5.938905632040554e-07,7.891534808293824e-08,-2.55698932031344e-09,5.984748028013898e-08,-1.0322132358985176e-08,-2.402697847719103e-07,7.891534808277425e-08,4.4866192964198184e-07,0.0,0.0,0.0,0.0,0.0,0.0,0.0,0.0,0.0,0.0,0.0,0.0,0.0,0.0,0.0,0.0,0.0,0.0,0.0,0.0,0.0,0.0,0.0,0.0,0.0,0.0,0.0,0.0,0.0,0.0,0.0,0.0,0.0,0.0,0.0,0.0,0.0,0.0,0.0,0.0,0.0,0.0
364098481186,25,364098481186,camera_init,body,-0.016055456982888763,-0.00037405199349101344,0.05313889406503066,-0.0030286231296198893,0.0025369441707412147,-0.001836168777883092,0.999990509875184,1.5808419028326545e-08,-7.843582881587312e-10,5.78113280903573e-09,3.119885213962477e-10,1.5137437671407795e-08,-3.9662474490827825e-09,-7.843582881359073e-10,8.78668915633361e-09,-1.0573638877734847e-09,-3.521361905024309e-08,8.064542233626564e-09,5.367257048696579e-08,5.781132809035052e-09,-1.0573638877095554e-09,1.3170564637292011e-08,8.573930636478583e-09,-6.855422914634882e-08,-6.450679784170837e-09,3.119885212441209e-10,-3.5213619050563904e-08,8.573930636630126e-09,1.8699253671011875e-07,-7.717840902357352e-08,-2.186232201465157e-07,1.51374376721751e-08,8.064542233333974e-09,-6.855422914786369e-08,-7.717840902366163e-08,5.460759468341605e-07,5.26952937165626e-08,-3.9662474490202625e-09,5.3672570487603035e-08,-6.4506797842451324e-09,-2.1862322014636127e-07,5.2695293716424e-08,4.153790798327989e-07,0.0,0.0,0.0,0.0,0.0,0.0,0.0,0.0,0.0,0.0,0.0,0.0,0.0,0.0,0.0,0.0,0.0,0.0,0.0,0.0,0.0,0.0,0.0,0.0,0.0,0.0,0.0,0.0,0.0,0.0,0.0,0.0,0.0,0.0,0.0,0.0,0.0,0.0,0.0,0.0,0.0,0.0
364199795785,26,364199795785,camera_init,body,-0.016010571670656136,-0.003785837936426205,0.0463598315751569,-0.002609972836968331,0.0023628830654555265,-0.001720609499429075,0.9999923221347038,1.5301505521930206e-08,-5.03206992147322e-10,7.009683950386175e-09,-4.687685163784972e-10,7.035238422334042e-09,-5.687692155014071e-09,-5.032069921780786e-10,9.773986376250944e-09,-2.095485294228043e-09,-3.922680961308449e-08,1.591186428244395e-08,5.799149607813403e-08,7.009683950559425e-09,-2.095485294255185e-09,1.631043319924862e-08,1.162385757223889e-08,-8.322176958853436e-08,-1.3458519290151443e-08,-4.687685163647621e-10,-3.922680961245123e-08,1.1623857571923597e-08,2.1205505352380418e-07,-1.0309357407664325e-07,-2.345414554973296e-07,7.035238422127577e-09,1.5911864282168142e-08,-8.322176958718805e-08,-1.0309357407672185e-07,6.15566159697963e-07,9.178233909297765e-08,-5.687692155355292e-09,5.799149607813499e-08,-1.3458519289484566e-08,-2.3454145549717008e-07,9.178233909284105e-08,4.256816322689235e-07,0.0,0.0,0.0,0.0,0.0,0.0,0.0,0.0,0.0,0.0,0.0,0.0,0.0,0.0,0.0,0.0,0.0,0.0,0.0,0.0,0.0,0.0,0.0,0.0,0.0,0.0,0.0,0.0,0.0,0.0,0.0,0.0,0.0,0.0,0.0,0.0,0.0,0.0,0.0,0.0,0.0,0.0
364299636356,27,364299636356,camera_init,body,-0.016524474678708042,-0.008365832293204067,0.04550457510114484,-0.00327148795909925,0.0023720600768477773,-0.0016986733619232491,0.9999903925570144,1.3368803408956155e-08,-3.649398014348448e-10,5.3612144788561515e-09,-2.2229842155075233e-09,1.0074906817867213e-08,-7.65870081614385e-09,-3.6493980142458774e-10,8.427191502594468e-09,-1.4301385490850906e-09,-3.4739755403029146e-08,1.2320968660000383e-08,5.007077330021401e-08,5.361214478784235e-09,-1.4301385490304522e-09,1.2687716878771076e-08,6.613132671243462e-09,-6.666519091200877e-08,-1.127009577147611e-08,-2.222984215415073e-09,-3.4739755402138596e-08,6.6131326712296e-09,1.8784055812506588e-07,-7.396396564719034e-08,-2.0568823471603923e-07,1.0074906817394992e-08,1.2320968659828928e-08,-6.666519091355094e-08,-7.396396564723449e-08,5.194402157969178e-07,7.334514672592365e-08,-7.65870081603129e-09,5.0070773300403453e-08,-1.1270095772089154e-08,-2.0568823471592515e-07,7.334514672584418e-08,3.775856945690922e-07,0.0,0.0,0.0,0.0,0.0,0.0,0.0,0.0,0.0,0.0,0.0,0.0,0.0,0.0,0.0,0.0,0.0,0.0,0.0,0.0,0.0,0.0,0.0,0.0,0.0,0.0,0.0,0.0,0.0,0.0,0.0,0.0,0.0,0.0,0.0,0.0,0.0,0.0,0.0,0.0,0.0,0.0
364398682479,28,364398682479,camera_init,body,-0.016897629422723926,-0.01725510487376009,0.04398708739335624,-0.0034344429122130714,0.0022647096807005577,-0.0012864687091303751,0.9999907103019519,1.550452131032819e-08,-7.554146109869436e-10,7.0891983950579195e-09,9.507050171374849e-10,5.603865446492284e-09,-7.563420060127604e-09,-7.55414611004223e-10,9.3654311860973e-09,-1.9049249699797135e-09,-3.581067837337024e-08,1.3084467034588451e-08,5.647782171815875e-08,7.089198394899973e-09,-1.9049249700119773e-09,1.530818733034352e-08,9.989712968866354e-09,-7.693485190013169e-08,-1.2342538108504143e-08,9.50705017404785e-10,-3.5810678373341655e-08,9.989712968370137e-09,1.861292351244415e-07,-8.060747492568638e-08,-2.1726533118349523e-07,5.6038654451427485e-09,1.3084467034660955e-08,-7.693485189730812e-08,-8.060747492573566e-08,5.666335736478217e-07,7.414682370542116e-08,-7.563420060138255e-09,5.647782171820859e-08,-1.2342538108573952e-08,-2.172653311833661e-07,7.41468237053132e-08,4.357928368675182e-07,0.0,0.0,0.0,0.0,0.0,0.0,0.0,0.0,0.0,0.0,0.0,0.0,0.0,0.0,0.0,0.0,0.0,0.0,0.0,0.0,0.0,0.0,0.0,0.0,0.0,0.0,0.0,0.0,0.0,0.0,0.0,0.0,0.0,0.0,0.0,0.0,0.0,0.0,0.0,0.0,0.0,0.0
364497317978,29,364497317978,camera_init,body,-0.01761246417924853,-0.029533842531746377,0.04761713833055616,-0.004086837545097497,0.002302629071485484,-0.0009674392277759854,0.999988529794005,1.894890830518841e-08,-1.3758271661742326e-09,8.104886881020464e-09,4.545370017592703e-10,1.0601759213938265e-08,-1.3983194666020404e-08,-1.3758271661719494e-09,9.644826141626088e-09,-1.5348883009842253e-09,-3.844773792893804e-08,1.002686912302917e-08,5.952945300832555e-08,8.104886880789801e-09,-1.5348883009873907e-09,1.5697643121798826e-08,7.51947964425498e-09,-7.363965975048613e-08,-1.2134053835719957e-08,4.5453700179903846e-10,-3.844773792902963e-08,7.519479644217103e-09,2.0361961318295757e-07,-7.059007238728471e-08,-2.3581229510400263e-07,1.0601759213230463e-08,1.0026869123064868e-08,-7.363965974948344e-08,-7.059007238733636e-08,5.499760833862483e-07,6.079408740253157e-08,-1.3983194666075048e-08,5.952945300930107e-08,-1.2134053835845796e-08,-2.35812295103842e-07,6.079408740243558e-08,4.802076129048683e-07,0.0,0.0,0.0,0.0,0.0,0.0,0.0,0.0,0.0,0.0,0.0,0.0,0.0,0.0,0.0,0.0,0.0,0.0,0.0,0.0,0.0,0.0,0.0,0.0,0.0,0.0,0.0,0.0,0.0,0.0,0.0,0.0,0.0,0.0,0.0,0.0,0.0,0.0,0.0,0.0,0.0,0.0
364595834831,30,364595834831,camera_init,body,-0.015830460738017072,-0.03922621687609648,0.05261145943432003,-0.004212955216067714,0.00222909596862858,-0.000504471508557166,0.9999885137580347,1.5662197316714617e-08,-1.1075072170976388e-09,6.691461617118106e-09,1.777384314714529e-09,9.505303123518519e-09,-9.500373720457539e-09,-1.1075072170805356e-09,8.708821520166468e-09,-1.4628076745277815e-09,-3.4010430593886824e-08,9.38628984418889e-09,5.199796829296167e-08,6.691461617143951e-09,-1.4628076745927458e-09,1.4269629407644624e-08,8.120975583297896e-09,-7.067477431398445e-08,-1.0607010876668061e-08,1.777384314807847e-09,-3.401043059411171e-08,8.120975583245904e-09,1.777203638854679e-07,-6.488941611423845e-08,-2.0238138309953508e-07,9.505303122569312e-09,9.386289844179351e-09,-7.067477431302787e-08,-6.488941611427694e-08,5.362529419990425e-07,5.8402624951915885e-08,-9.500373720578378e-09,5.19979682933129e-08,-1.060701087632904e-08,-2.0238138309943005e-07,5.84026249518488e-08,4.0533467575791095e-07,0.0,0.0,0.0,0.0,0.0,0.0,0.0,0.0,0.0,0.0,0.0,0.0,0.0,0.0,0.0,0.0,0.0,0.0,0.0,0.0,0.0,0.0,0.0,0.0,0.0,0.0,0.0,0.0,0.0,0.0,0.0,0.0,0.0,0.0,0.0,0.0,0.0,0.0,0.0,0.0,0.0,0.0
364694475191,31,364694475191,camera_init,body,-0.018611320921239703,-0.043449098231293025,0.06218117352539432,-0.0046858327444369114,0.0026058541465984685,-0.0005579462505568457,0.9999854704902639,1.651667247713545e-08,-2.1050231647183204e-09,6.26277284670718e-09,5.448008086397955e-09,1.4235773127585892e-08,-1.545405928617111e-08,-2.105023164730294e-09,8.57526605589832e-09,-1.898614267342717e-09,-3.3111089998457494e-08,8.193708368713882e-09,5.20301872923484e-08,6.2627728465806926e-09,-1.89861426731914e-09,1.3029717034214027e-08,9.132051121477652e-09,-6.373166642737799e-08,-1.2307879124093221e-08,5.448008086541343e-09,-3.311108999851573e-08,9.132051121286285e-09,1.7083011744281655e-07,-5.5128205211807317e-08,-1.998954196465981e-07,1.4235773127106895e-08,8.193708368573063e-09,-6.373166642689133e-08,-5.512820521184271e-08,5.004830719564952e-07,4.720450664917976e-08,-1.5454059286132368e-08,5.20301872924648e-08,-1.2307879124196065e-08,-1.9989541964650154e-07,4.720450664911508e-08,4.090575802873806e-07,0.0,0.0,0.0,0.0,0.0,0.0,0.0,0.0,0.0,0.0,0.0,0.0,0.0,0.0,0.0,0.0,0.0,0.0,0.0,0.0,0.0,0.0,0.0,0.0,0.0,0.0,0.0,0.0,0.0,0.0,0.0,0.0,0.0,0.0,0.0,0.0,0.0,0.0,0.0,0.0,0.0,0.0
364799632661,32,364799632661,camera_init,body,-0.020986292980987257,-0.041745152254599856,0.06707572198768723,-0.00562970188546241,0.002709388135163016,-0.0011185607787388809,0.9999798570443277,1.8915978873180095e-08,-1.4108374677097223e-09,6.337506555585513e-09,1.6828520241418337e-09,1.8882508722814414e-08,-1.0282318004488439e-08,-1.4108374677261896e-09,9.559013602110995e-09,-1.7949460951853238e-09,-3.6279614174297074e-08,1.1268304639572765e-08,6.00957266676672e-08,6.337506555604153e-09,-1.794946095161047e-09,1.3233651634167985e-08,1.0781557072444972e-08,-6.507311232177332e-08,-1.2047761003648855e-08,1.6828520242735192e-09,-3.627961417444816e-08,1.078155707244114e-08,1.8946850293108607e-07,-8.517772407655338e-08,-2.2960526401675455e-07,1.8882508722271677e-08,1.1268304639540026e-08,-6.507311232272794e-08,-8.517772407659916e-08,5.195001439422145e-07,7.30194569275913e-08,-1.0282318004519132e-08,6.009572666722876e-08,-1.204776100385441e-08,-2.2960526401665121e-07,7.301945692749476e-08,4.7084348133924207e-07,0.0,0.0,0.0,0.0,0.0,0.0,0.0,0.0,0.0,0.0,0.0,0.0,0.0,0.0,0.0,0.0,0.0,0.0,0.0,0.0,0.0,0.0,0.0,0.0,0.0,0.0,0.0,0.0,0.0,0.0,0.0,0.0,0.0,0.0,0.0,0.0,0.0,0.0,0.0,0.0,0.0,0.0
364899467400,33,364899467400,camera_init,body,-0.020999073004692358,-0.031052716226537283,0.06740029127123522,-0.004652806770832321,0.002538593507182375,-0.00098223404700675,0.9999854709686695,1.5660473327389025e-08,-1.3247414520771297e-09,6.711774864499233e-09,4.523372749421816e-09,9.913913538013696e-09,-1.5093827332606258e-08,-1.3247414520917058e-09,1.057648198103618e-08,-2.9667383145221006e-09,-4.109395775594357e-08,1.7907698500489144e-08,6.613909135099951e-08,6.711774864622922e-09,-2.9667383145112133e-09,1.5608582062646037e-08,1.5794481186222053e-08,-7.76347899137191e-08,-2.16191294643771e-08,4.523372749372771e-09,-4.1093957756825434e-08,1.5794481186362455e-08,2.089459388997182e-07,-1.0426466222480056e-07,-2.579928945228098e-07,9.913913538151657e-09,1.790769850028515e-08,-7.763478991363607e-08,-1.0426466222484114e-07,5.741999859916659e-07,1.0934143033791271e-07,-1.5093827332726543e-08,6.613909135053703e-08,-2.1619129463834012e-08,-2.579928945227203e-07,1.0934143033783218e-07,5.074476653860645e-07,0.0,0.0,0.0,0.0,0.0,0.0,0.0,0.0,0.0,0.0,0.0,0.0,0.0,0.0,0.0,0.0,0.0,0.0,0.0,0.0,0.0,0.0,0.0,0.0,0.0,0.0,0.0,0.0,0.0,0.0,0.0,0.0,0.0,0.0,0.0,0.0,0.0,0.0,0.0,0.0,0.0,0.0
364999317700,34,364999317700,camera_init,body,-0.021272035196778352,-0.013469636792875385,0.07225711491462514,-0.004440725546675428,0.002816148861019437,-0.0017220171947017588,0.9999846918423251,1.3743611434507876e-08,-1.1882354543040964e-09,5.387578271232765e-09,3.772884776745094e-09,1.0678737272706716e-08,-9.336955892602648e-09,-1.1882354542874074e-09,9.527106944368406e-09,-2.444988110415234e-09,-3.6798981913346754e-08,1.472969031218484e-08,5.9267534954563206e-08,5.387578271281683e-09,-2.44498811037048e-09,1.3088420723211824e-08,1.2261397996272121e-08,-6.871292432850645e-08,-1.557071804557852e-08,3.7728847768492625e-09,-3.6798981914417404e-08,1.2261397996167569e-08,1.9005157303690234e-07,-8.546924783314916e-08,-2.304351823813294e-07,1.067873727225493e-08,1.4729690312087692e-08,-6.871292432675728e-08,-8.546924783317907e-08,5.286400972252881e-07,8.902089297640902e-08,-9.336955892818422e-09,5.9267534955003e-08,-1.5570718045504007e-08,-2.3043518238124835e-07,8.902089297635555e-08,4.4386499999347656e-07,0.0,0.0,0.0,0.0,0.0,0.0,0.0,0.0,0.0,0.0,0.0,0.0,0.0,0.0,0.0,0.0,0.0,0.0,0.0,0.0,0.0,0.0,0.0,0.0,0.0,0.0,0.0,0.0,0.0,0.0,0.0,0.0,0.0,0.0,0.0,0.0,0.0,0.0,0.0,0.0,0.0,0.0
365099129720,35,365099129720,camera_init,body,-0.021802617251317245,-0.006094145318697708,0.07160089633479098,-0.0031927437406171297,0.0027776779769480087,-0.0010323570686936693,0.9999905125206654,1.5986777036553e-08,-4.646752341598205e-10,5.961619201024567e-09,1.2065263271632233e-09,1.4754641155338057e-08,-7.464199516452127e-09,-4.6467523420302674e-10,1.021199098822826e-08,-1.5568351698253308e-09,-3.8501957801351546e-08,1.1557282599280687e-08,6.396882963750712e-08,5.961619200924671e-09,-1.556835169758321e-09,1.2531716362568798e-08,9.054590621566348e-09,-6.253229742262996e-08,-1.1683450429772676e-08,1.2065263270234877e-09,-3.850195779943619e-08,9.054590621948803e-09,1.922477941056736e-07,-7.343870721423617e-08,-2.4164941055238076e-07,1.4754641155427207e-08,1.1557282599101819e-08,-6.253229742288763e-08,-7.343870721427419e-08,4.990988068357447e-07,7.068950598641747e-08,-7.46419951650032e-09,6.396882963533908e-08,-1.1683450429783287e-08,-2.4164941055232205e-07,7.068950598635529e-08,4.946625524951818e-07,0.0,0.0,0.0,0.0,0.0,0.0,0.0,0.0,0.0,0.0,0.0,0.0,0.0,0.0,0.0,0.0,0.0,0.0,0.0,0.0,0.0,0.0,0.0,0.0,0.0,0.0,0.0,0.0,0.0,0.0,0.0,0.0,0.0,0.0,0.0,0.0,0.0,0.0,0.0,0.0,0.0,0.0
365199793940,36,365199793940,camera_init,body,-0.02329162940896011,0.003184316040778128,0.07005432759497947,-0.002275256850373759,0.0026216586277707714,-0.001419502262769406,0.9999929675380856,1.656559725548082e-08,-8.389717529189961e-10,7.479871835319871e-09,1.6356660893069568e-09,8.00105066470388e-09,-6.836708068984423e-09,-8.389717529070663e-10,9.562816701717337e-09,-1.9719042678129047e-09,-3.804801183849431e-08,1.3923743075085962e-08,5.737724883230843e-08,7.47987183512994e-09,-1.9719042678074577e-09,1.4356140503125664e-08,1.2801164789545753e-08,-6.785235034097177e-08,-1.288287452819067e-08,1.635666089256806e-09,-3.804801183925357e-08,1.2801164789798676e-08,2.0254988024187276e-07,-1.0084095608174902e-07,-2.3034209514370868e-07,8.001050666059133e-09,1.392374307539425e-08,-6.785235034340713e-08,-1.0084095608178194e-07,5.088714256272661e-07,8.456363730801527e-08,-6.83670806891488e-09,5.7377248831518676e-08,-1.288287452842258e-08,-2.3034209514365325e-07,8.456363730794527e-08,4.2504024485646724e-07,0.0,0.0,0.0,0.0,0.0,0.0,0.0,0.0,0.0,0.0,0.0,0.0,0.0,0.0,0.0,0.0,0.0,0.0,0.0,0.0,0.0,0.0,0.0,0.0,0.0,0.0,0.0,0.0,0.0,0.0,0.0,0.0,0.0,0.0,0.0,0.0,0.0,0.0,0.0,0.0,0.0,0.0
365299530186,37,365299530186,camera_init,body,-0.025149082013356534,0.006192405109180472,0.06944255800281642,-0.0030608341087093862,0.0028606149284894447,-0.0021779065219462114,0.9999888523878491,1.4903859046429453e-08,-9.502501243681764e-10,5.131843838363918e-09,1.2580266278112128e-09,1.5222813470773117e-08,-6.029695181888949e-09,-9.502501243334636e-10,8.3917654080076e-09,-1.3139731102198753e-09,-3.292464599100205e-08,8.668196984615155e-09,5.4071557295328146e-08,5.131843838657123e-09,-1.3139731101988734e-09,1.2335705781206735e-08,8.927250472585269e-09,-6.462293768770128e-08,-8.437372635756733e-09,1.2580266278693884e-09,-3.292464599056011e-08,8.927250472319767e-09,1.7287901949860572e-07,-7.112499520197162e-08,-2.145053006590939e-07,1.5222813471955363e-08,8.668196984506219e-09,-6.462293768980364e-08,-7.112499520199823e-08,5.138511925701758e-07,5.566569678243692e-08,-6.0296951817232215e-09,5.407155729500385e-08,-8.437372635777078e-09,-2.1450530065903073e-07,5.566569678238199e-08,4.4852441746637357e-07,0.0,0.0,0.0,0.0,0.0,0.0,0.0,0.0,0.0,0.0,0.0,0.0,0.0,0.0,0.0,0.0,0.0,0.0,0.0,0.0,0.0,0.0,0.0,0.0,0.0,0.0,0.0,0.0,0.0,0.0,0.0,0.0,0.0,0.0,0.0,0.0,0.0,0.0,0.0,0.0,0.0,0.0
365397079180,38,365397079180,camera_init,body,-0.027250513134136792,0.0027312201803042844,0.0629123607570925,-0.0024512566504954524,0.002943691937567046,-0.0017860108197772374,0.9999910680520891,1.5507011680271875e-08,-1.6509150530713907e-10,5.390435178383607e-09,-1.4829152517712297e-09,1.8688771706603943e-08,-2.336187335973774e-09,-1.6509150532904808e-10,9.386822253928744e-09,-1.6729925692529789e-09,-3.5829060379386165e-08,1.3384485005766552e-08,5.846261615524484e-08,5.3904351782363995e-09,-1.6729925693191386e-09,1.3843569894894279e-08,9.092609762702844e-09,-7.315411625334184e-08,-1.0845897868329439e-08,-1.4829152515997954e-09,-3.582906037942407e-08,9.092609762299492e-09,1.8596668028411173e-07,-8.291825902721722e-08,-2.2495030560002978e-07,1.8688771704497055e-08,1.338448500618974e-08,-7.315411624961015e-08,-8.291825902723692e-08,5.933047249094628e-07,8.26654554843099e-08,-2.3361873360703806e-09,5.846261615647704e-08,-1.084589786822907e-08,-2.2495030559994074e-07,8.266545548425361e-08,4.554362458770937e-07,0.0,0.0,0.0,0.0,0.0,0.0,0.0,0.0,0.0,0.0,0.0,0.0,0.0,0.0,0.0,0.0,0.0,0.0,0.0,0.0,0.0,0.0,0.0,0.0,0.0,0.0,0.0,0.0,0.0,0.0,0.0,0.0,0.0,0.0,0.0,0.0,0.0,0.0,0.0,0.0,0.0,0.0
365499262132,39,365499262132,camera_init,body,-0.03017424769566142,0.002801574544122877,0.06044006538358646,-0.0031346159102147355,0.003150699912241372,-0.002405866691396733,0.999987229457766,1.565288154282041e-08,-5.487158961469223e-10,5.769288503124227e-09,-9.184489016883595e-10,1.622291621482255e-08,-7.2225416126200934e-09,-5.48715896112545e-10,9.42114990897967e-09,-1.4707878312302214e-09,-3.771681482068226e-08,1.1285062619525226e-08,5.7666657419984064e-08,5.769288503147084e-09,-1.4707878311381878e-09,1.3360927186115991e-08,6.755966453258011e-09,-6.981061103433753e-08,-1.1003472641622975e-08,-9.184489018608953e-10,-3.771681482027304e-08,6.755966453692054e-09,1.9803838788505728e-07,-6.924479970403991e-08,-2.30210804384716e-07,1.622291621579378e-08,1.1285062619327282e-08,-6.981061103635069e-08,-6.924479970406948e-08,5.64872687539056e-07,7.061363424837316e-08,-7.222541612533622e-09,5.766665741997483e-08,-1.1003472641798582e-08,-2.302108043846303e-07,7.061363424832306e-08,4.651049431520687e-07,0.0,0.0,0.0,0.0,0.0,0.0,0.0,0.0,0.0,0.0,0.0,0.0,0.0,0.0,0.0,0.0,0.0,0.0,0.0,0.0,0.0,0.0,0.0,0.0,0.0,0.0,0.0,0.0,0.0,0.0,0.0,0.0,0.0,0.0,0.0,0.0,0.0,0.0,0.0,0.0,0.0,0.0
365599213581,40,365599213581,camera_init,body,-0.024830958876669407,-0.006794340894553249,0.053161411195034355,-0.0029748759142407505,0.0025990060366550462,-0.0015810656122088754,0.9999909477152495,1.5349914450197265e-08,-2.4609935341938475e-10,7.115892933365983e-09,-1.7892364464138772e-09,5.893691692102578e-09,-3.80353376945232e-09,-2.460993534034839e-10,9.973375195427008e-09,-1.8699304013170896e-09,-3.740027707247267e-08,1.4363689281282088e-08,6.232520141678252e-08,7.115892933668923e-09,-1.8699304013995057e-09,1.3936189557213713e-08,7.784231390189613e-09,-6.694727841119484e-08,-1.1831356104969845e-08,-1.7892364464176748e-09,-3.7400277072461236e-08,7.784231390316274e-09,1.912873799327652e-07,-7.702479997996116e-08,-2.3512049233683042e-07,5.893691691868056e-09,1.4363689281606325e-08,-6.694727841181723e-08,-7.702479997997918e-08,4.956129115793357e-07,8.290049203943685e-08,-3.80353376966184e-09,6.232520141644723e-08,-1.183135610456681e-08,-2.3512049233676562e-07,8.290049203939068e-08,4.962762357359695e-07,0.0,0.0,0.0,0.0,0.0,0.0,0.0,0.0,0.0,0.0,0.0,0.0,0.0,0.0,0.0,0.0,0.0,0.0,0.0,0.0,0.0,0.0,0.0,0.0,0.0,0.0,0.0,0.0,0.0,0.0,0.0,0.0,0.0,0.0,0.0,0.0,0.0,0.0,0.0,0.0,0.0,0.0
365698391439,41,365698391439,camera_init,body,-0.022721875620500615,-0.01677258669323426,0.05340884121608594,-0.003553144620256777,0.002913607048259927,-0.001471478832786048,0.9999883603359173,1.7109250525228724e-08,-7.927965933623907e-11,6.75731991947178e-09,-3.5539418384827623e-09,1.2803165884495258e-08,-3.8087336045006416e-09,-7.92796593456491e-11,1.0015355204664989e-08,-1.4974380028213653e-09,-4.009922206476888e-08,1.4291791324614125e-08,6.196480255788608e-08,6.7573199195754475e-09,-1.4974380028093725e-09,1.5203654182370638e-08,9.096325136363381e-09,-7.715254344440268e-08,-1.034392611348612e-08,-3.553941838462032e-09,-4.009922206550739e-08,9.096325136316753e-09,2.1281722779695723e-07,-9.835649822117967e-08,-2.471139320205362e-07,1.2803165884970655e-08,1.4291791324629678e-08,-7.715254344487138e-08,-9.835649822121215e-08,5.918474601065423e-07,8.542153852544418e-08,-3.808733604601896e-09,6.196480255856686e-08,-1.0343926113322871e-08,-2.4711393202044983e-07,8.542153852538309e-08,4.920389245184717e-07,0.0,0.0,0.0,0.0,0.0,0.0,0.0,0.0,0.0,0.0,0.0,0.0,0.0,0.0,0.0,0.0,0.0,0.0,0.0,0.0,0.0,0.0,0.0,0.0,0.0,0.0,0.0,0.0,0.0,0.0,0.0,0.0,0.0,0.0,0.0,0.0,0.0,0.0,0.0,0.0,0.0,0.0
365797106987,42,365797106987,camera_init,body,-0.01969470055518669,-0.023608368807976548,0.05540913370065152,-0.003603327929991503,0.0025699878900456254,-0.001112609362278628,0.9999895865910192,1.8586337949491757e-08,-4.5346285362741667e-10,7.17338645691804e-09,-1.3243802247817864e-09,1.7113744971984602e-08,-4.4355566927987196e-09,-4.5346285363212255e-10,9.869589137059473e-09,-1.5519850072436746e-09,-3.795710677589397e-08,1.2445864812915392e-08,5.997078413438827e-08,7.173386456983051e-09,-1.5519850072566222e-09,1.4368425474458246e-08,8.870461592050302e-09,-6.786903313032707e-08,-1.0796801189487522e-08,-1.3243802247345677e-09,-3.795710677576152e-08,8.870461591878551e-09,1.9629710201127899e-07,-8.303397752958519e-08,-2.307449261462532e-07,1.7113744971308352e-08,1.2445864812900376e-08,-6.786903312885306e-08,-8.303397752960383e-08,5.358016998404097e-07,7.865901161357333e-08,-4.4355566928473495e-09,5.997078413426913e-08,-1.0796801189455982e-08,-2.307449261461921e-07,7.865901161353134e-08,4.6112312203287963e-07,0.0,0.0,0.0,0.0,0.0,0.0,0.0,0.0,0.0,0.0,0.0,0.0,0.0,0.0,0.0,0.0,0.0,0.0,0.0,0.0,0.0,0.0,0.0,0.0,0.0,0.0,0.0,0.0,0.0,0.0,0.0,0.0,0.0,0.0,0.0,0.0,0.0,0.0,0.0,0.0,0.0,0.0
365895302481,43,365895302481,camera_init,body,-0.015437229655428736,-0.03592047812621668,0.053511527429623854,-0.004820721994058554,0.0023046798815615573,-0.0010011998414075627,0.9999852232353106,1.570787630876373e-08,-1.4376080398832415e-09,6.280079487066741e-09,1.862835047473564e-09,1.1526667056953309e-08,-1.1485324455219376e-08,-1.4376080398778985e-09,8.156808524400854e-09,-1.7211650502408432e-09,-3.124306460077289e-08,9.619753102364036e-09,4.9001539017976924e-08,6.280079486919309e-09,-1.7211650502751036e-09,1.2500288304821401e-08,7.024859361862292e-09,-6.062257581095887e-08,-1.1581350214624866e-08,1.8628350474831924e-09,-3.1243064601409226e-08,7.02485936185175e-09,1.5997511439867426e-07,-5.5181380375476204e-08,-1.8697646507138432e-07,1.1526667057198207e-08,9.619753102538712e-09,-6.062257581071746e-08,-5.5181380375486766e-08,4.716055613579934e-07,5.7612685703299725e-08,-1.1485324455267473e-08,4.900153901811902e-08,-1.1581350214678898e-08,-1.8697646507133938e-07,5.7612685703275055e-08,3.8580224740661306e-07,0.0,0.0,0.0,0.0,0.0,0.0,0.0,0.0,0.0,0.0,0.0,0.0,0.0,0.0,0.0,0.0,0.0,0.0,0.0,0.0,0.0,0.0,0.0,0.0,0.0,0.0,0.0,0.0,0.0,0.0,0.0,0.0,0.0,0.0,0.0,0.0,0.0,0.0,0.0,0.0,0.0,0.0
365994404210,44,365994404210,camera_init,body,-0.011387845383655702,-0.037514704897733925,0.0450611887283437,-0.00413721877009299,0.0017862479596501024,-0.0006791027713194185,0.9999896157253325,1.9245587550412223e-08,-6.436823587558598e-10,6.597818392640412e-09,-3.278323532666479e-09,1.9309841058047788e-08,-8.720057203238155e-09,-6.436823587509262e-10,1.123330125041977e-08,-1.1426937106696456e-09,-4.261527402102574e-08,1.0843374062803635e-08,6.471459686664945e-08,6.597818392524762e-09,-1.1426937106408802e-09,1.324425428745837e-08,5.750789259882492e-09,-6.405130805050765e-08,-8.400063590137494e-09,-3.2783235327392166e-09,-4.2615274020814514e-08,5.750789260074929e-09,2.142185267924877e-07,-7.63096112772454e-08,-2.4569741149487054e-07,1.9309841057364444e-08,1.0843374062789872e-08,-6.405130804938483e-08,-7.63096112772766e-08,5.159262454714647e-07,5.8727192344230076e-08,-8.72005720322408e-09,6.471459686628009e-08,-8.40006359013553e-09,-2.45697411494801e-07,5.872719234417478e-08,4.7399998772521043e-07,0.0,0.0,0.0,0.0,0.0,0.0,0.0,0.0,0.0,0.0,0.0,0.0,0.0,0.0,0.0,0.0,0.0,0.0,0.0,0.0,0.0,0.0,0.0,0.0,0.0,0.0,0.0,0.0,0.0,0.0,0.0,0.0,0.0,0.0,0.0,0.0,0.0,0.0,0.0,0.0,0.0,0.0
366099632843,45,366099632843,camera_init,body,-0.013814887780422171,-0.03123040982384777,0.046081714086320356,-0.005521708279170802,0.0020960821410831065,-0.0017686540529772256,0.9999809943394805,1.5798553557859355e-08,-4.556186721733491e-10,6.2275600378266046e-09,-3.3757302164529896e-10,1.290548530614609e-08,-5.747252991237183e-09,-4.55618672185861e-10,9.459743897912364e-09,-2.0638648504746584e-09,-3.6361767730242556e-08,1.5192906113548696e-08,5.8491934843478364e-08,6.227560037579425e-09,-2.0638648504295138e-09,1.4760297159496013e-08,1.0991551465009217e-08,-7.466961202778211e-08,-1.3919881917616871e-08,-3.3757302171944743e-10,-3.6361767729926507e-08,1.0991551465364523e-08,1.89425388444067e-07,-9.27129788220765e-08,-2.2662320042987824e-07,1.2905485306035553e-08,1.519290611361288e-08,-7.466961202765139e-08,-9.271297882209796e-08,5.68871457950229e-07,9.347090754584157e-08,-5.747252991148298e-09,5.849193484287198e-08,-1.3919881917823408e-08,-2.2662320042982937e-07,9.347090754579495e-08,4.5954235040168896e-07,0.0,0.0,0.0,0.0,0.0,0.0,0.0,0.0,0.0,0.0,0.0,0.0,0.0,0.0,0.0,0.0,0.0,0.0,0.0,0.0,0.0,0.0,0.0,0.0,0.0,0.0,0.0,0.0,0.0,0.0,0.0,0.0,0.0,0.0,0.0,0.0,0.0,0.0,0.0,0.0,0.0,0.0
366199468884,46,366199468884,camera_init,body,-0.0193252340085288,-0.021952553652700862,0.05324732291011963,-0.0045255919034283346,0.0023845433745964444,-0.0014996472993302622,0.9999857919134618,1.5973523637062927e-08,2.1814454976813242e-11,6.404542754288812e-09,-1.7339348842412977e-09,1.3104171729298777e-08,-5.097681068753478e-09,2.1814454998213542e-11,8.885881301994307e-09,-1.2932833911234783e-09,-3.3971997674492095e-08,1.1951520371544722e-08,5.341931811403389e-08,6.404542754026749e-09,-1.2932833910489873e-09,1.2777548524927902e-08,8.005786710585408e-09,-6.28336222862272e-08,-1.0238212510975359e-08,-1.7339348843756083e-09,-3.397199767500434e-08,8.005786711025206e-09,1.811399342502749e-07,-8.248924837666953e-08,-2.0580884634620403e-07,1.3104171730666947e-08,1.1951520371241664e-08,-6.28336222897997e-08,-8.248924837669598e-08,5.031927631426234e-07,7.193162073906892e-08,-5.097681068778779e-09,5.3419318114004215e-08,-1.023821251125697e-08,-2.0580884634616072e-07,7.193162073903334e-08,4.0980897784698227e-07,0.0,0.0,0.0,0.0,0.0,0.0,0.0,0.0,0.0,0.0,0.0,0.0,0.0,0.0,0.0,0.0,0.0,0.0,0.0,0.0,0.0,0.0,0.0,0.0,0.0,0.0,0.0,0.0,0.0,0.0,0.0,0.0,0.0,0.0,0.0,0.0,0.0,0.0,0.0,0.0,0.0,0.0
366299302259,47,366299302259,camera_init,body,-0.023268840725765995,-0.015045147298529371,0.06016078299376187,-0.0038368414943789173,0.00254729162320236,-0.0012057588161986156,0.9999886679849966,1.5798152526708793e-08,-2.62539863394212e-10,6.217775026595853e-09,1.4399744996873126e-09,1.1435277070623882e-08,-5.9133341753856986e-09,-2.625398633991151e-10,8.708014999585353e-09,-1.0990151321787065e-09,-3.088858122205728e-08,8.05832708211312e-09,5.310516372515526e-08,6.217775026779247e-09,-1.0990151321917306e-09,1.2454828822268589e-08,7.17118851236174e-09,-6.052727202703516e-08,-8.38407069878392e-09,1.4399744997378658e-09,-3.088858122191985e-08,7.171188512285914e-09,1.5572066763113193e-07,-5.4729434329131486e-08,-1.8936423797271015e-07,1.1435277069897127e-08,8.058327082069208e-09,-6.052727202621485e-08,-5.47294343291457e-08,4.659875647488672e-07,4.621891832355639e-08,-5.913334175405209e-09,5.31051637246717e-08,-8.384070698762384e-09,-1.8936423797267833e-07,4.621891832353152e-08,4.116797496698666e-07,0.0,0.0,0.0,0.0,0.0,0.0,0.0,0.0,0.0,0.0,0.0,0.0,0.0,0.0,0.0,0.0,0.0,0.0,0.0,0.0,0.0,0.0,0.0,0.0,0.0,0.0,0.0,0.0,0.0,0.0,0.0,0.0,0.0,0.0,0.0,0.0,0.0,0.0,0.0,0.0,0.0,0.0
366399056056,48,366399056056,camera_init,body,-0.024460244155731,-0.012571265659058398,0.06774580453973805,-0.0036164746564413494,0.0025759434922505028,-0.0012492730623157805,0.9999893624149193,1.491537396259982e-08,-8.443776500060705e-10,7.2349323718773596e-09,2.6298445915275318e-09,4.545392734044825e-09,-1.3719377298719114e-08,-8.443776499893064e-10,8.985329370684355e-09,-1.4075169316655659e-09,-3.552287262920644e-08,9.274543579500271e-09,5.598882337447867e-08,7.234932371958395e-09,-1.4075169316219087e-09,1.3736633507597813e-08,8.248916639330044e-09,-6.45755557680759e-08,-1.338432023429765e-08,2.629844591554551e-09,-3.552287262951063e-08,8.248916639271329e-09,1.9065575972805834e-07,-6.617112755406413e-08,-2.2154430067590968e-07,4.545392734763638e-09,9.27454357915267e-09,-6.457555576960923e-08,-6.617112755408557e-08,4.7500642181635045e-07,5.87530168531431e-08,-1.3719377298831897e-08,5.598882337465481e-08,-1.3384320234424678e-08,-2.2154430067586044e-07,5.8753016853113e-08,4.4096055687871426e-07,0.0,0.0,0.0,0.0,0.0,0.0,0.0,0.0,0.0,0.0,0.0,0.0,0.0,0.0,0.0,0.0,0.0,0.0,0.0,0.0,0.0,0.0,0.0,0.0,0.0,0.0,0.0,0.0,0.0,0.0,0.0,0.0,0.0,0.0,0.0,0.0,0.0,0.0,0.0,0.0,0.0,0.0
