%time,field.header.seq,field.header.stamp,field.header.frame_id,field.child_frame_id,field.pose.pose.position.x,field.pose.pose.position.y,field.pose.pose.position.z,field.pose.pose.orientation.x,field.pose.pose.orientation.y,field.pose.pose.orientation.z,field.pose.pose.orientation.w,field.pose.covariance0,field.pose.covariance1,field.pose.covariance2,field.pose.covariance3,field.pose.covariance4,field.pose.covariance5,field.pose.covariance6,field.pose.covariance7,field.pose.covariance8,field.pose.covariance9,field.pose.covariance10,field.pose.covariance11,field.pose.covariance12,field.pose.covariance13,field.pose.covariance14,field.pose.covariance15,field.pose.covariance16,field.pose.covariance17,field.pose.covariance18,field.pose.covariance19,field.pose.covariance20,field.pose.covariance21,field.pose.covariance22,field.pose.covariance23,field.pose.covariance24,field.pose.covariance25,field.pose.covariance26,field.pose.covariance27,field.pose.covariance28,field.pose.covariance29,field.pose.covariance30,field.pose.covariance31,field.pose.covariance32,field.pose.covariance33,field.pose.covariance34,field.pose.covariance35,field.twist.twist.linear.x,field.twist.twist.linear.y,field.twist.twist.linear.z,field.twist.twist.angular.x,field.twist.twist.angular.y,field.twist.twist.angular.z,field.twist.covariance0,field.twist.covariance1,field.twist.covariance2,field.twist.covariance3,field.twist.covariance4,field.twist.covariance5,field.twist.covariance6,field.twist.covariance7,field.twist.covariance8,field.twist.covariance9,field.twist.covariance10,field.twist.covariance11,field.twist.covariance12,field.twist.covariance13,field.twist.covariance14,field.twist.covariance15,field.twist.covariance16,field.twist.covariance17,field.twist.covariance18,field.twist.covariance19,field.twist.covariance20,field.twist.covariance21,field.twist.covariance22,field.twist.covariance23,field.twist.covariance24,field.twist.covariance25,field.twist.covariance26,field.twist.covariance27,field.twist.covariance28,field.twist.covariance29,field.twist.covariance30,field.twist.covariance31,field.twist.covariance32,field.twist.covariance33,field.twist.covariance34,field.twist.covariance35
361599265415,0,361599265415,camera_init,body,-0.011838754065682086,-0.0021650855754562983,0.023208179107068717,-2.5352689355818573e-05,0.001682904765944063,0.00025768280327296574,0.9999985503931313,0.0,0.0,0.0,0.0,0.0,0.0,0.0,0.0,0.0,0.0,0.0,0.0,0.0,0.0,0.0,0.0,0.0,0.0,0.0,0.0,0.0,0.0,0.0,0.0,0.0,0.0,0.0,0.0,0.0,0.0,0.0,0.0,0.0,0.0,0.0,0.0,0.0,0.0,0.0,0.0,0.0,0.0,0.0,0.0,0.0,0.0,0.0,0.0,0.0,0.0,0.0,0.0,0.0,0.0,0.0,0.0,0.0,0.0,0.0,0.0,0.0,0.0,0.0,0.0,0.0,0.0,0.0,0.0,0.0,0.0,0.0,0.0,0.0,0.0,0.0,0.0,0.0,0.0
361699507625,1,361699507625,camera_init,body,-0.018575392863386594,0.004072600291488076,0.03412578016899761,-0.0005795924288713972,0.0021289876905684255,-0.0005269532228695052,0.9999974268988551,5.6785332178677095e-06,3.071479289970969e-08,1.0071810999410896e-06,-1.8132944366346172e-06,1.2644468609906978e-05,1.0690919269592896e-06,3.071479379991306e-08,4.667356966914227e-06,-1.1831548126367235e-06,-1.868903382809539e-05,9.482476682178418e-06,2.7257010091644683e-05,1.0071810965258494e-06,-1.1831548120532105e-06,5.680047705958202e-06,5.654418997245981e-06,-3.401929535205243e-05,-7.0408944234926e-06,-1.8132944484330001e-06,-1.8689033827568036e-05,5.654419013547231e-06,9.105994610636436e-05,-5.179637446443733e-05,-0.00010913193628658445,1.2644468602607262e-05,9.48247669160063e-06,-3.401929535703217e-05,-5.179637446902692e-05,0.00027954905770077865,5.9599600191885866e-05,1.0690919327200894e-06,2.7257010102737156e-05,-7.040894425769575e-06,-0.00010913193628205058,5.959960019073225e-05,0.00018537462382095526,0.0,0.0,0.0,0.0,0.0,0.0,0.0,0.0,0.0,0.0,0.0,0.0,0.0,0.0,0.0,0.0,0.0,0.0,0.0,0.0,0.0,0.0,0.0,0.0,0.0,0.0,0.0,0.0,0.0,0.0,0.0,0.0,0.0,0.0,0.0,0.0,0.0,0.0,0.0,0.0,0.0,0.0
361799224894,2,361799224894,camera_init,body,-0.014290496184280958,-0.007892420402900613,0.0287904871877451,-0.0008049800371853144,0.0012524855145353048,0.00038192032372919113,0.9999988187113238,5.014657418781953e-06,-3.7516194211095465e-08,1.8212809803200455e-06,-3.584709601379312e-07,5.804135447582879e-06,6.828689606559937e-07,-3.751619420281961e-08,3.842914730833554e-06,-4.4694023688883907e-07,-1.4988232570199237e-05,3.7530606898100732e-06,2.2051530416536457e-05,1.8212809802907664e-06,-4.469402368870042e-07,5.471974342042909e-06,3.006976366794283e-06,-2.9386763170005615e-05,-2.583147899754915e-06,-3.5847096017943244e-07,-1.498823257019681e-05,3.006976366796661e-06,7.402720093931288e-05,-2.662125697172779e-05,-8.601550806267535e-05,5.8041354477700304e-06,3.753060689770965e-06,-2.938676316991256e-05,-2.6621256971568337e-05,0.00022466899413455498,2.493773031121822e-05,6.828689607066364e-07,2.2051530416534794e-05,-2.583147899759815e-06,-8.601550806267255e-05,2.4937730311418858e-05,0.00015526390864383129,0.0,0.0,0.0,0.0,0.0,0.0,0.0,0.0,0.0,0.0,0.0,0.0,0.0,0.0,0.0,0.0,0.0,0.0,0.0,0.0,0.0,0.0,0.0,0.0,0.0,0.0,0.0,0.0,0.0,0.0,0.0,0.0,0.0,0.0,0.0,0.0,0.0,0.0,0.0,0.0,0.0,0.0
361898023217,3,361898023217,camera_init,body,-0.011054307710731412,-0.010408489105691643,0.020941193250160032,-0.0019923937053141177,0.0016343526010606931,-0.0006018502663907962,0.9999964985114482,5.167223406161666e-06,-1.5815307060007736e-07,1.7148136615067027e-06,-1.7070997830510042e-07,6.5278901199253115e-06,-6.182435252368167e-07,-1.5815307060222173e-07,2.5171925266502244e-06,-3.3030630191256055e-07,-8.91493458638969e-06,2.2145916598111275e-06,1.3765612964889446e-05,1.7148136614994534e-06,-3.3030630191502944e-07,4.742490571134086e-06,1.6067728195667415e-06,-2.4958699553406577e-05,-2.1878761114003663e-06,-1.707099782747347e-07,-8.91493458641224e-06,1.6067728194844501e-06,4.529977080451532e-05,-1.5084550638643277e-05,-4.938800852426499e-05,6.527890119972644e-06,2.214591659838517e-06,-2.4958699553367315e-05,-1.5084550639325348e-05,0.00019691415858438528,1.5558820891407857e-05,-6.182435252241851e-07,1.3765612964859711e-05,-2.18787611146618e-06,-4.9388008524003804e-05,1.5558820891887142e-05,0.00010102129783709046,0.0,0.0,0.0,0.0,0.0,0.0,0.0,0.0,0.0,0.0,0.0,0.0,0.0,0.0,0.0,0.0,0.0,0.0,0.0,0.0,0.0,0.0,0.0,0.0,0.0,0.0,0.0,0.0,0.0,0.0,0.0,0.0,0.0,0.0,0.0,0.0,0.0,0.0,0.0,0.0,0.0,0.0
361996496537,4,361996496537,camera_init,body,-0.010944688327336072,-0.016353975154753776,0.02731029109152518,-0.0018885673667376787,0.0016232114279946756,-8.461137957339938e-05,0.9999968956646202,4.8545475807682225e-06,-1.8618225921644067e-07,1.796005462164792e-06,2.4016574846694014e-08,4.938531832560498e-06,-1.2837722085163537e-07,-1.8618225921855804e-07,2.6324920187712432e-06,-4.531947914543873e-07,-9.558016532508326e-06,2.933533145360488e-06,1.4295473896582267e-05,1.796005462166026e-06,-4.531947914657453e-07,4.6395651307916446e-06,2.1512188317105358e-06,-2.3594968990767994e-05,-2.3524267467556728e-06,2.4016574871173954e-08,-9.558016532538343e-06,2.151218831601258e-06,4.766904852080298e-05,-1.728408440396582e-05,-5.4233526553509664e-05,4.938531832550403e-06,2.9335331454482657e-06,-2.3594968990766327e-05,-1.7284084404810668e-05,0.00018079892133438669,1.8600649659286218e-05,-1.2837722084795342e-07,1.4295473896549204e-05,-2.3524267467515405e-06,-5.423352655318347e-05,1.8600649659254403e-05,0.00010035690361254453,0.0,0.0,0.0,0.0,0.0,0.0,0.0,0.0,0.0,0.0,0.0,0.0,0.0,0.0,0.0,0.0,0.0,0.0,0.0,0.0,0.0,0.0,0.0,0.0,0.0,0.0,0.0,0.0,0.0,0.0,0.0,0.0,0.0,0.0,0.0,0.0,0.0,0.0,0.0,0.0,0.0,0.0
362095147034,5,362095147034,camera_init,body,-0.011225085455042546,-0.01844389773242898,0.029263153033861407,-0.0028210365911805774,0.0012981405796786906,-0.0004413516197182484,0.9999950808840691,5.276193260759401e-06,-2.001631189413559e-07,1.9014517350751385e-06,-1.0360166003580619e-07,5.235818374695525e-06,2.8271110685110123e-08,-2.0016311894339123e-07,2.479394953467569e-06,-4.151377042283398e-07,-9.048444693804357e-06,2.8458457454490013e-06,1.3337969221042818e-05,1.9014517350768615e-06,-4.1513770423829957e-07,4.182125134475903e-06,2.3711539115217435e-06,-2.035244651179826e-05,-2.240943268517172e-06,-1.0360166001471666e-07,-9.04844469383022e-06,2.3711539114407464e-06,4.498145281034295e-05,-1.9610141273979657e-05,-5.211777168843997e-05,5.235818374683292e-06,2.845845745526177e-06,-2.035244651180193e-05,-1.9610141274610896e-05,0.00015948413500532313,1.9351827931682906e-05,2.8271110687397456e-08,1.3337969221014537e-05,-2.2409432685034347e-06,-5.2117771688161725e-05,1.9351827931581903e-05,9.479730373246396e-05,0.0,0.0,0.0,0.0,0.0,0.0,0.0,0.0,0.0,0.0,0.0,0.0,0.0,0.0,0.0,0.0,0.0,0.0,0.0,0.0,0.0,0.0,0.0,0.0,0.0,0.0,0.0,0.0,0.0,0.0,0.0,0.0,0.0,0.0,0.0,0.0,0.0,0.0,0.0,0.0,0.0,0.0
362199159715,6,362199159715,camera_init,body,-0.011632561819977846,-0.016625446994963426,0.029119407625521898,-0.0024917255780095345,0.0013528689118823235,-0.0006032291122799884,0.9999957985731691,5.666067994966817e-06,5.410274601789759e-09,2.2912758579781502e-06,-1.415991689665122e-06,4.5911257855080595e-06,1.3736919484789839e-06,5.410274599547292e-09,2.475010055891611e-06,-3.158391025653518e-07,-9.146665820711122e-06,3.015808259161417e-06,1.3358433587331745e-05,2.2912758579770207e-06,-3.1583910257231287e-07,4.040042620899454e-06,1.2850125086641048e-06,-1.7582984376762664e-05,-1.3173351944302415e-06,-1.4159916896501053e-06,-9.146665820732435e-06,1.285012508604809e-06,4.6119377411303256e-05,-1.796854798571597e-05,-5.3357241096974475e-05,4.591125785515156e-06,3.015808259219088e-06,-1.7582984376755017e-05,-1.796854798617759e-05,0.0001385005910561744,1.8958387522909294e-05,1.3736919484704608e-06,1.3358433587310863e-05,-1.3173351944168165e-06,-5.335724109674671e-05,1.8958387522766996e-05,9.281101258500062e-05,0.0,0.0,0.0,0.0,0.0,0.0,0.0,0.0,0.0,0.0,0.0,0.0,0.0,0.0,0.0,0.0,0.0,0.0,0.0,0.0,0.0,0.0,0.0,0.0,0.0,0.0,0.0,0.0,0.0,0.0,0.0,0.0,0.0,0.0,0.0,0.0,0.0,0.0,0.0,0.0,0.0,0.0
362299315485,7,362299315485,camera_init,body,-0.01199186987648917,-0.019351412977319855,0.02995421607120863,-0.0022482915729949903,0.0013865202405640943,0.000109175075694544,0.9999965054076081,6.221053001100952e-06,-2.497055010460957e-07,2.696107546361793e-06,-2.5673940146715996e-08,3.7722425634732483e-06,-4.418649959102935e-07,-2.4970550104739617e-07,2.3059581328920017e-06,-4.5521748282963605e-07,-8.613647349166185e-06,2.9465669675908982e-06,1.2402297465583386e-05,2.696107546362435e-06,-4.5521748283487347e-07,4.009300571395493e-06,2.330775669707265e-06,-1.5896705901878812e-05,-2.4278981791972807e-06,-2.5673940135796682e-08,-8.613647349180385e-06,2.330775669669436e-06,4.439569763050225e-05,-2.0032258411952766e-05,-5.027907625633179e-05,3.7722425634664818e-06,2.946566967632272e-06,-1.589670590187713e-05,-2.003225841224741e-05,0.00012302405164709468,1.9565601946543954e-05,-4.4186499591323146e-07,1.2402297465569931e-05,-2.427898179179656e-06,-5.027907625618757e-05,1.9565601946401524e-05,8.672963647861764e-05,0.0,0.0,0.0,0.0,0.0,0.0,0.0,0.0,0.0,0.0,0.0,0.0,0.0,0.0,0.0,0.0,0.0,0.0,0.0,0.0,0.0,0.0,0.0,0.0,0.0,0.0,0.0,0.0,0.0,0.0,0.0,0.0,0.0,0.0,0.0,0.0,0.0,0.0,0.0,0.0,0.0,0.0
362399172883,8,362399172883,camera_init,body,-0.013472185162170405,-0.014534575712611957,0.03181200197890916,8.140385298740168e-05,0.0016503662161820626,0.001016026079223129,0.9999981186761164,6.1194502963485826e-06,-3.005496099512589e-07,2.340027395941623e-06,-4.4526750960051e-07,4.6589128228332065e-06,-5.741394004874655e-07,-3.0054960995249616e-07,2.1679869865717983e-06,-3.6083551019871654e-07,-7.862154778176461e-06,2.327423455265401e-06,1.1327735579369042e-05,2.34002739594172e-06,-3.6083551020193817e-07,3.5946713767195316e-06,1.5837471380744672e-06,-1.4855951637300704e-05,-1.729327383695583e-06,-4.4526750959187405e-07,-7.862154778183881e-06,1.5837471380526375e-06,4.094968380011195e-05,-1.701679327402289e-05,-4.503640611385605e-05,4.658912822830324e-06,2.3274234552924834e-06,-1.4855951637298608e-05,-1.7016793274199795e-05,0.00011914611322018357,1.511813570372003e-05,-5.74139400492461e-07,1.132773557936262e-05,-1.7293273836828522e-06,-4.503640611378218e-05,1.5118135703606992e-05,7.802697051434997e-05,0.0,0.0,0.0,0.0,0.0,0.0,0.0,0.0,0.0,0.0,0.0,0.0,0.0,0.0,0.0,0.0,0.0,0.0,0.0,0.0,0.0,0.0,0.0,0.0,0.0,0.0,0.0,0.0,0.0,0.0,0.0,0.0,0.0,0.0,0.0,0.0,0.0,0.0,0.0,0.0,0.0,0.0
362498574025,9,362498574025,camera_init,body,-0.013636093046290303,-0.014391118797799966,0.03418515861909869,-0.0020267935071185397,0.0015499680104249687,-0.0003200063408663768,0.9999966936461281,5.625173223922566e-06,-8.911618110615923e-08,2.4833504661972578e-06,-5.986050386317885e-07,3.060898853571166e-06,1.677556965389727e-07,-8.911618110647785e-08,2.061904780630571e-06,-2.792120660270243e-07,-7.397716357286096e-06,2.168761926100239e-06,1.0559178731977574e-05,2.483350466197645e-06,-2.792120660291427e-07,3.7490362489568468e-06,1.4653915696502666e-06,-1.4937030431376289e-05,-1.4597112785094107e-06,-5.986050386299047e-07,-7.397716357288925e-06,1.4653915696392945e-06,3.867647443153042e-05,-1.5247328320268182e-05,-4.158833090729065e-05,3.0608988535692055e-06,2.1687619261163968e-06,-1.4937030431377613e-05,-1.5247328320352291e-05,0.00011503194565418497,1.3839360333976442e-05,1.6775569653743798e-07,1.0559178731976596e-05,-1.4597112784982974e-06,-4.1588330907267186e-05,1.383936033389228e-05,7.238259999276775e-05,0.0,0.0,0.0,0.0,0.0,0.0,0.0,0.0,0.0,0.0,0.0,0.0,0.0,0.0,0.0,0.0,0.0,0.0,0.0,0.0,0.0,0.0,0.0,0.0,0.0,0.0,0.0,0.0,0.0,0.0,0.0,0.0,0.0,0.0,0.0,0.0,0.0,0.0,0.0,0.0,0.0,0.0
362599526337,10,362599526337,camera_init,body,-0.01386732615617463,-0.013141340075834333,0.03437315423177678,-0.002134431069502445,0.0018452407485255726,-0.00035115245816992163,0.9999959579831013,5.229485612797004e-06,-4.3117289042987244e-08,2.292381923677487e-06,-2.097901629566772e-07,2.6799091901335754e-06,5.780692138485563e-07,-4.3117289043043353e-08,1.8393635828285921e-06,-3.1546848137004445e-07,-6.374355601452524e-06,2.2575008640764207e-06,9.452085489809507e-06,2.292381923677769e-06,-3.154684813709651e-07,3.355580735606831e-06,1.6414172295570413e-06,-1.328441440492711e-05,-1.4981998733392913e-06,-2.0979016295654222e-07,-6.374355601452217e-06,1.641417229554318e-06,3.321074373398961e-05,-1.43225568595465e-05,-3.596230526871026e-05,2.6799091901323134e-06,2.257500864083398e-06,-1.3284414404928547e-05,-1.4322556859569508e-05,0.0001015302775819244,1.4203216673469881e-05,5.780692138480971e-07,9.452085489810728e-06,-1.4981998733326275e-06,-3.5962305268714474e-05,1.4203216673419867e-05,6.620435697891403e-05,0.0,0.0,0.0,0.0,0.0,0.0,0.0,0.0,0.0,0.0,0.0,0.0,0.0,0.0,0.0,0.0,0.0,0.0,0.0,0.0,0.0,0.0,0.0,0.0,0.0,0.0,0.0,0.0,0.0,0.0,0.0,0.0,0.0,0.0,0.0,0.0,0.0,0.0,0.0,0.0,0.0,0.0
362699462938,11,362699462938,camera_init,body,-0.018085092800074396,-0.01274186485446772,0.03833555038385591,-0.0016816146030385864,0.0017308646239673567,-0.0001563952165912273,0.9999970759059831,5.976564834121774e-06,-4.6407037890877585e-08,2.647123846047501e-06,-2.339674200246509e-07,3.2251203865053105e-06,-3.4722472725940104e-07,-4.6407037890744706e-08,1.8367907860478372e-06,-2.1659398003839894e-07,-6.1451084804179075e-06,1.7223046828889177e-06,9.118287955776872e-06,2.6471238460477777e-06,-2.1659398003879614e-07,3.4192142972318718e-06,1.3408849356777645e-06,-1.2107289144646722e-05,-1.461912190402213e-06,-2.3396742002547879e-07,-6.14510848041681e-06,1.3408849356777914e-06,3.203732579695276e-05,-1.2633730543380078e-05,-3.4217273652940383e-05,3.225120386503973e-06,1.72230468289133e-06,-1.210728914465072e-05,-1.2633730543379182e-05,9.527906528283478e-05,1.1380139855673654e-05,-3.472247272590441e-07,9.118287955778766e-06,-1.4619121903980774e-06,-3.4217273652957114e-05,1.1380139855646288e-05,6.442088326094249e-05,0.0,0.0,0.0,0.0,0.0,0.0,0.0,0.0,0.0,0.0,0.0,0.0,0.0,0.0,0.0,0.0,0.0,0.0,0.0,0.0,0.0,0.0,0.0,0.0,0.0,0.0,0.0,0.0,0.0,0.0,0.0,0.0,0.0,0.0,0.0,0.0,0.0,0.0,0.0,0.0,0.0,0.0
362799298641,12,362799298641,camera_init,body,-0.019485850143630495,-0.01720852237052655,0.03866658606469751,-0.0027434133677851,0.002253847537714707,-0.00042852192785905544,0.9999936050912166,5.283105438690172e-06,-2.1254316814145318e-07,2.4101118823126108e-06,6.829099021931588e-07,2.0876660643527453e-06,-5.183191356162271e-07,-2.1254316814150315e-07,1.6962611829954367e-06,-2.8231766120371263e-07,-5.597087156276605e-06,1.4228006960054559e-06,8.466378428891012e-06,2.410111882312827e-06,-2.823176612038132e-07,3.253044487108595e-06,1.8520083399915405e-06,-1.2272029618379032e-05,-1.4720247153477977e-06,6.829099021931784e-07,-5.597087156274765e-06,1.852008339991978e-06,2.970122963204195e-05,-1.2321009818926111e-05,-3.1342546473572095e-05,2.08766606435175e-06,1.4228006960061968e-06,-1.227202961837905e-05,-1.2321009818921776e-05,9.34737897921503e-05,1.0058755835569521e-05,-5.183191356167381e-07,8.46637842889194e-06,-1.472024715346234e-06,-3.134254647358841e-05,1.0058755835558063e-05,6.087378453456677e-05,0.0,0.0,0.0,0.0,0.0,0.0,0.0,0.0,0.0,0.0,0.0,0.0,0.0,0.0,0.0,0.0,0.0,0.0,0.0,0.0,0.0,0.0,0.0,0.0,0.0,0.0,0.0,0.0,0.0,0.0,0.0,0.0,0.0,0.0,0.0,0.0,0.0,0.0,0.0,0.0,0.0,0.0
362899101897,13,362899101897,camera_init,body,-0.017287558997184618,-0.017675060999467158,0.03689435717929424,-0.0002478229525116186,0.0019138237996850728,0.0011581572887542986,0.9999974672637642,5.383150664970015e-06,-1.160954888379261e-07,2.2995387330626283e-06,-5.783807009293536e-07,3.1788911638464214e-06,1.2806920131403383e-07,-1.1609548883784744e-07,1.6801144842646155e-06,-2.0906788176002117e-07,-5.720690011323567e-06,1.5472446920656106e-06,8.336862604534253e-06,2.2995387330626317e-06,-2.0906788176011926e-07,3.0570100052181045e-06,9.375404778109338e-07,-1.1277719376940237e-05,-8.810978806093672e-07,-5.783807009293965e-07,-5.720690011322616e-06,9.375404778105026e-07,3.006663132756633e-05,-1.1528967782284116e-05,-3.162725840746557e-05,3.1788911638455735e-06,1.5472446920661614e-06,-1.127771937693959e-05,-1.152896778228686e-05,8.995068501094024e-05,9.711149049747165e-06,1.280692013145734e-07,8.336862604535127e-06,-8.810978806086114e-07,-3.162725840747687e-05,9.711149049744004e-06,5.921799443416955e-05,0.0,0.0,0.0,0.0,0.0,0.0,0.0,0.0,0.0,0.0,0.0,0.0,0.0,0.0,0.0,0.0,0.0,0.0,0.0,0.0,0.0,0.0,0.0,0.0,0.0,0.0,0.0,0.0,0.0,0.0,0.0,0.0,0.0,0.0,0.0,0.0,0.0,0.0,0.0,0.0,0.0,0.0
362999759140,14,362999759140,camera_init,body,-0.01473839627899718,-0.019924441931541633,0.03185471206984864,-0.0003461570130503994,0.0012322505377120104,0.001083964331106295,0.9999985933766429,5.845247709161738e-06,-1.0257829183937855e-07,2.811784348534143e-06,-4.185188442974193e-07,2.2065563334256125e-06,1.6500524324195175e-07,-1.025782918394021e-07,1.7263802602393292e-06,-2.074191205167475e-07,-6.128356981925473e-06,1.5522833490366418e-06,8.527492103178563e-06,2.8117843485341283e-06,-2.074191205169552e-07,3.4868531622467015e-06,1.301561518863953e-06,-1.190763414188347e-05,-1.0164200232806252e-06,-4.18518844297033e-07,-6.128356981924927e-06,1.3015615188621494e-06,3.3075342391483415e-05,-1.3452015945152773e-05,-3.415311059275152e-05,2.2065563334257828e-06,1.5522833490384341e-06,-1.1907634141884392e-05,-1.345201594516846e-05,9.135450160668455e-05,1.0670340572577677e-05,1.6500524324222786e-07,8.527492103179027e-06,-1.0164200232803124e-06,-3.415311059275647e-05,1.0670340572574704e-05,6.098974576359014e-05,0.0,0.0,0.0,0.0,0.0,0.0,0.0,0.0,0.0,0.0,0.0,0.0,0.0,0.0,0.0,0.0,0.0,0.0,0.0,0.0,0.0,0.0,0.0,0.0,0.0,0.0,0.0,0.0,0.0,0.0,0.0,0.0,0.0,0.0,0.0,0.0,0.0,0.0,0.0,0.0,0.0,0.0
363099050371,15,363099050371,camera_init,body,-0.01594247408619327,-0.02312382973279587,0.03419247143705619,-0.0017909860824906502,0.001629533400428453,0.0004805661800505199,0.9999969530183063,5.497389163567364e-06,-1.9056966163361593e-07,2.3377564658216023e-06,9.54040426218771e-08,3.401425198640746e-06,-3.726446450784545e-07,-1.9056966163374524e-07,1.7238806456710683e-06,-2.705468955038886e-07,-5.9484873864451265e-06,1.5044889140874894e-06,8.391541001980829e-06,2.337756465821429e-06,-2.705468955042131e-07,3.0906135352323972e-06,1.4788998232946047e-06,-1.13783859151046e-05,-1.3148437505082596e-06,9.540404262291514e-08,-5.948487386445186e-06,1.4788998232918664e-06,3.09547442997665e-05,-1.1745261913823337e-05,-3.266700948477926e-05,3.4014251986421457e-06,1.5044889140905084e-06,-1.1378385915106522e-05,-1.1745261913848825e-05,9.214740710962337e-05,9.847794241697627e-06,-3.7264464507843885e-07,8.391541001979893e-06,-1.3148437505080565e-06,-3.266700948477731e-05,9.847794241693294e-06,6.015141098611561e-05,0.0,0.0,0.0,0.0,0.0,0.0,0.0,0.0,0.0,0.0,0.0,0.0,0.0,0.0,0.0,0.0,0.0,0.0,0.0,0.0,0.0,0.0,0.0,0.0,0.0,0.0,0.0,0.0,0.0,0.0,0.0,0.0,0.0,0.0,0.0,0.0,0.0,0.0,0.0,0.0,0.0,0.0
363197335873,16,363197335873,camera_init,body,-0.01568105692689771,-0.02336559136361456,0.032053809118554794,-0.0011522901514574417,0.0016560373261412774,0.0007997939093021989,0.9999976450459696,5.6752367676699255e-06,-1.4268680101924044e-07,2.6704604901429357e-06,-2.573225526386236e-07,2.47274094981545e-06,3.123074832833861e-07,-1.4268680101940376e-07,1.8557267934969152e-06,-2.4626584085673427e-07,-6.336723189892398e-06,1.6296398429565619e-06,8.71879554551413e-06,2.6704604901428497e-06,-2.4626584085733334e-07,3.4513965315900117e-06,1.2818887505917726e-06,-1.2053649071266005e-05,-9.576569594714816e-07,-2.573225526372711e-07,-6.336723189893299e-06,1.281888750586851e-06,3.2861522565083086e-05,-1.247473534991794e-05,-3.391440288871056e-05,2.4727409498160826e-06,1.6296398429613599e-06,-1.2053649071266523e-05,-1.2474735349954869e-05,9.281557138638872e-05,1.0445991273765087e-05,3.1230748328307597e-07,8.718795545512876e-06,-9.576569594703028e-07,-3.391440288870314e-05,1.0445991273753512e-05,6.00275029566628e-05,0.0,0.0,0.0,0.0,0.0,0.0,0.0,0.0,0.0,0.0,0.0,0.0,0.0,0.0,0.0,0.0,0.0,0.0,0.0,0.0,0.0,0.0,0.0,0.0,0.0,0.0,0.0,0.0,0.0,0.0,0.0,0.0,0.0,0.0,0.0,0.0,0.0,0.0,0.0,0.0,0.0,0.0
363296148775,17,363296148775,camera_init,body,-0.02104522974349659,-0.026849847124282393,0.038809127390020744,-0.0019478248757642627,0.0020030531935101626,0.0007186183536052318,0.9999958386632517,5.737832710431597e-06,6.437918389159755e-08,2.5972500716637654e-06,-1.2579127668380063e-06,3.0927702519108133e-06,8.987019050310641e-07,6.43791838913073e-08,1.823211500606836e-06,-1.4455703141292083e-07,-6.384925902103758e-06,1.7248084625250348e-06,8.85070269814311e-06,2.5972500716633707e-06,-1.4455703141355335e-07,3.3924091334646466e-06,5.841553027247866e-07,-1.1812391448529912e-05,-5.697883582925527e-07,-1.2579127668362604e-06,-6.384925902104878e-06,5.841553027196421e-07,3.2608417754822675e-05,-1.1012011570244368e-05,-3.458427432172238e-05,3.0927702519137487e-06,1.7248084625303176e-06,-1.1812391448529212e-05,-1.101201157028508e-05,9.240431361588826e-05,9.908608265992175e-06,8.987019050298401e-07,8.850702698141128e-06,-5.697883582910439e-07,-3.458427432171142e-05,9.908608265976786e-06,6.112104857044323e-05,0.0,0.0,0.0,0.0,0.0,0.0,0.0,0.0,0.0,0.0,0.0,0.0,0.0,0.0,0.0,0.0,0.0,0.0,0.0,0.0,0.0,0.0,0.0,0.0,0.0,0.0,0.0,0.0,0.0,0.0,0.0,0.0,0.0,0.0,0.0,0.0,0.0,0.0,0.0,0.0,0.0,0.0
363394834360,18,363394834360,camera_init,body,-0.021873639698957236,-0.02423042701554375,0.036420652498872386,-0.002567025868457061,0.001973071200362044,3.285092152098426e-05,0.9999947581307852,5.725146746207183e-06,-1.5560301870412335e-08,2.538506987838153e-06,-1.1056474658449037e-06,2.7968792128764998e-06,6.418147430809685e-07,-1.556030187077681e-08,1.8615706522580333e-06,-1.1328193738758095e-07,-6.416514234997762e-06,1.3943274890428444e-06,9.055219042255327e-06,2.5385069878379133e-06,-1.1328193738827712e-07,3.2816410489762223e-06,4.5393512313832317e-07,-1.1678573006637607e-05,-4.4630868803438693e-07,-1.1056474658429398e-06,-6.41651423499983e-06,4.5393512313266436e-07,3.3676373094051795e-05,-1.0679458531016247e-05,-3.549637006389518e-05,2.7968792128786474e-06,1.394327489048894e-06,-1.1678573006635136e-05,-1.0679458531061232e-05,9.193338207161733e-05,9.25822976711377e-06,6.418147430793883e-07,9.055219042254374e-06,-4.463086880323728e-07,-3.5496370063881266e-05,9.258229767093728e-06,6.219067654894692e-05,0.0,0.0,0.0,0.0,0.0,0.0,0.0,0.0,0.0,0.0,0.0,0.0,0.0,0.0,0.0,0.0,0.0,0.0,0.0,0.0,0.0,0.0,0.0,0.0,0.0,0.0,0.0,0.0,0.0,0.0,0.0,0.0,0.0,0.0,0.0,0.0,0.0,0.0,0.0,0.0,0.0,0.0
363499292617,19,363499292617,camera_init,body,-0.020775221907494028,-0.02376517119091251,0.0384801143739811,-0.003141983036863367,0.0019227804553222153,-0.00019838200873205372,0.9999931957280992,5.693013887030978e-06,-6.253499728173483e-08,2.56375915758843e-06,-7.037735243866256e-07,2.4980300170736038e-06,6.714721264358295e-08,-6.253499728210078e-08,1.793896952745836e-06,-1.8834188579702715e-07,-6.344238539484743e-06,1.6543765279967035e-06,8.883771360309717e-06,2.563759157588148e-06,-1.8834188579778885e-07,3.305472051570321e-06,8.756920287502857e-07,-1.1970895406444427e-05,-9.350642824043805e-07,-7.037735243845619e-07,-6.344238539486472e-06,8.756920287444019e-07,3.357413628874258e-05,-1.1908946224072645e-05,-3.533476200190447e-05,2.4980300170743475e-06,1.6543765280030144e-06,-1.1970895406441062e-05,-1.190894622411769e-05,9.298683251859292e-05,1.0153987033455715e-05,6.714721264193081e-08,8.883771360308743e-06,-9.350642824018242e-07,-3.533476200189045e-05,1.0153987033432556e-05,6.147982536942149e-05,0.0,0.0,0.0,0.0,0.0,0.0,0.0,0.0,0.0,0.0,0.0,0.0,0.0,0.0,0.0,0.0,0.0,0.0,0.0,0.0,0.0,0.0,0.0,0.0,0.0,0.0,0.0,0.0,0.0,0.0,0.0,0.0,0.0,0.0,0.0,0.0,0.0,0.0,0.0,0.0,0.0,0.0
363599175915,20,363599175915,camera_init,body,-0.01976410277874128,-0.026041215809541978,0.034218046936388226,-0.002088909778576174,0.0020451983799620026,0.0005306989894418043,0.999995585979312,6.462808363274932e-06,-1.6255792219879059e-07,2.7580027794869873e-06,-1.0826155348045996e-06,3.5266686171032385e-06,-1.2251353150249745e-07,-1.6255792219926927e-07,1.8268219052641567e-06,-1.622261334635715e-07,-6.444900872812908e-06,1.4196559040692736e-06,9.141326130549627e-06,2.758002779486469e-06,-1.6222613346425227e-07,3.440148287636335e-06,5.67532673778525e-07,-1.1806110568346859e-05,-6.704909200062408e-07,-1.0826155348019302e-06,-6.444900872814284e-06,5.675326737732718e-07,3.4530465898730934e-05,-1.1778361476090105e-05,-3.6212567846400826e-05,3.526668617106902e-06,1.419655904075536e-06,-1.180611056834629e-05,-1.1778361476135816e-05,9.35549077897137e-05,9.162664632627923e-06,-1.2251353150502148e-07,9.141326130548026e-06,-6.704909200037685e-07,-3.621256784638587e-05,9.162664632601757e-06,6.243995636483175e-05,0.0,0.0,0.0,0.0,0.0,0.0,0.0,0.0,0.0,0.0,0.0,0.0,0.0,0.0,0.0,0.0,0.0,0.0,0.0,0.0,0.0,0.0,0.0,0.0,0.0,0.0,0.0,0.0,0.0,0.0,0.0,0.0,0.0,0.0,0.0,0.0,0.0,0.0,0.0,0.0,0.0,0.0
363699674953,21,363699674953,camera_init,body,-0.017602767754087454,-0.02658338510631677,0.03348359743128566,-0.00441759592966468,0.0018366306282605698,-0.0008103962146037836,0.9999882273767603,5.823234614678788e-06,-1.1910236341249439e-07,2.722153974062335e-06,-4.6309983319625794e-07,2.4349238078506407e-06,-1.3365038626088287e-08,-1.1910236341276414e-07,1.7851491812141457e-06,-2.2216329100695742e-07,-6.2516609756259465e-06,1.5812836341240456e-06,9.034751672636474e-06,2.7221539740621486e-06,-2.2216329100763079e-07,3.5514368182567305e-06,1.1119170606210682e-06,-1.247516815848555e-05,-1.012724816114119e-06,-4.630998331946762e-07,-6.251660975627139e-06,1.1119170606158657e-06,3.34648669508742e-05,-1.2316582967468992e-05,-3.558223443275243e-05,2.4349238078523555e-06,1.5812836341297366e-06,-1.247516815848401e-05,-1.2316582967510015e-05,9.49196799948021e-05,9.96843606528432e-06,-1.3365038627429961e-08,9.034751672634582e-06,-1.012724816111401e-06,-3.558223443273913e-05,9.968436065259712e-06,6.218327912469472e-05,0.0,0.0,0.0,0.0,0.0,0.0,0.0,0.0,0.0,0.0,0.0,0.0,0.0,0.0,0.0,0.0,0.0,0.0,0.0,0.0,0.0,0.0,0.0,0.0,0.0,0.0,0.0,0.0,0.0,0.0,0.0,0.0,0.0,0.0,0.0,0.0,0.0,0.0,0.0,0.0,0.0,0.0
363798925096,22,363798925096,camera_init,body,-0.018096853321160542,-0.020688966338592567,0.03416377443204266,-0.0003210633950458989,0.0013628279542261764,0.0012341410666688532,0.9999982582555301,5.409130481953227e-06,-4.800763695547951e-08,2.310022911808233e-06,-5.320383833056126e-07,3.403004692538707e-06,2.0422862489314178e-07,-4.8007636955775836e-08,1.7405680110633352e-06,-2.0961844395243927e-07,-5.958491293008151e-06,1.707753098345622e-06,8.751807402804132e-06,2.3100229118078417e-06,-2.0961844395294686e-07,3.06338328505469e-06,1.0238138688735446e-06,-1.105920925620446e-05,-9.58749375902483e-07,-5.320383833040019e-07,-5.958491293009018e-06,1.0238138688698626e-06,3.108912504773157e-05,-1.1762004339478946e-05,-3.3616504763470216e-05,3.4030046925398517e-06,1.7077530983503348e-06,-1.1059209256203037e-05,-1.1762004339511447e-05,8.911518635639102e-05,1.016499399489038e-05,2.0422862489179415e-07,8.751807402802975e-06,-9.587493759004148e-07,-3.3616504763458974e-05,1.0164993994870603e-05,6.0332210321455616e-05,0.0,0.0,0.0,0.0,0.0,0.0,0.0,0.0,0.0,0.0,0.0,0.0,0.0,0.0,0.0,0.0,0.0,0.0,0.0,0.0,0.0,0.0,0.0,0.0,0.0,0.0,0.0,0.0,0.0,0.0,0.0,0.0,0.0,0.0,0.0,0.0,0.0,0.0,0.0,0.0,0.0,0.0
363899462880,23,363899462880,camera_init,body,-0.018982991514935935,-0.020411403257651083,0.03819614761094814,-0.001669600013406793,0.0015063942215394152,0.0003826268232465861,0.9999973984010961,5.536529920185982e-06,9.792112291340592e-08,2.455752522383633e-06,-6.179434164913291e-07,2.6523315176723103e-06,6.552016703439269e-07,9.792112291316336e-08,1.846359631331397e-06,-1.1435380814837243e-07,-6.02808553219496e-06,1.4571781004317716e-06,8.924013284689212e-06,2.455752522383494e-06,-1.143538081489213e-07,3.0789347334623715e-06,1.023316502247796e-06,-1.0844580907365977e-05,-7.681464776229206e-07,-6.179434164899963e-07,-6.028085532196558e-06,1.0233165022439209e-06,3.0434129864029883e-05,-1.1386049222175192e-05,-3.325627974950316e-05,2.6523315176724157e-06,1.4571781004362e-06,-1.0844580907362604e-05,-1.138604922220367e-05,8.583374706770777e-05,9.727481476891936e-06,6.552016703427567e-07,8.924013284688717e-06,-7.681464776208154e-07,-3.325627974949242e-05,9.727481476874405e-06,6.109821953278338e-05,0.0,0.0,0.0,0.0,0.0,0.0,0.0,0.0,0.0,0.0,0.0,0.0,0.0,0.0,0.0,0.0,0.0,0.0,0.0,0.0,0.0,0.0,0.0,0.0,0.0,0.0,0.0,0.0,0.0,0.0,0.0,0.0,0.0,0.0,0.0,0.0,0.0,0.0,0.0,0.0,0.0,0.0
363999331543,24,363999331543,camera_init,body,-0.017853909331672205,-0.01997781616100365,0.03784958606692267,-0.0017321006858486362,0.0018879547894754003,0.0002628259874443243,0.9999966831827136,5.769646752966468e-06,-1.165686036641286e-07,2.7235629385758664e-06,-1.3923779934106404e-07,2.38473200453833e-06,1.7737754885514918e-07,-1.1656860366433111e-07,1.6550801642872535e-06,-2.2427406826734421e-07,-5.582064193556391e-06,1.4718084536312218e-06,8.319489706600963e-06,2.7235629385758724e-06,-2.2427406826779748e-07,3.2897089989423757e-06,1.273685153117468e-06,-1.0791611043723138e-05,-1.0393104228189477e-06,-1.3923779933988995e-07,-5.582064193558083e-06,1.273685153114076e-06,2.9526673423628285e-05,-1.1622998585554229e-05,-3.22053768077799e-05,2.384732004538239e-06,1.4718084536349282e-06,-1.0791611043721635e-05,-1.1622998585579015e-05,8.353652977318644e-05,1.0196791633100952e-05,1.7737754885426064e-07,8.319489706600372e-06,-1.0393104228171876e-06,-3.220537680777009e-05,1.019679163308606e-05,6.076525791057445e-05,0.0,0.0,0.0,0.0,0.0,0.0,0.0,0.0,0.0,0.0,0.0,0.0,0.0,0.0,0.0,0.0,0.0,0.0,0.0,0.0,0.0,0.0,0.0,0.0,0.0,0.0,0.0,0.0,0.0,0.0,0.0,0.0,0.0,0.0,0.0,0.0,0.0,0.0,0.0,0.0,0.0,0.0
364098481186,25,364098481186,camera_init,body,-0.018940828663618996,-0.020417454471606523,0.036676298195412106,-0.001651330241915489,0.0018149975700915268,0.00028714771588946286,0.999996948214565,5.40705501989524e-06,-1.66882873737634e-07,2.298672498074208e-06,-5.097662188549402e-07,3.512794434161095e-06,-1.0090429652464371e-08,-1.6688287373787257e-07,1.6511711781900393e-06,-2.0866594427959375e-07,-5.658791578425537e-06,1.3757229744502411e-06,8.249545558702555e-06,2.2986724980743116e-06,-2.086659442799559e-07,2.845985750114074e-06,8.543196749725692e-07,-9.739716525861069e-06,-9.003005350250294e-07,-5.097662188535451e-07,-5.6587915784267205e-06,8.54319674970025e-07,2.9529861962972327e-05,-1.0743420254578416e-05,-3.196323774707014e-05,3.5127944341625757e-06,1.375722974453635e-06,-9.739716525860478e-06,-1.0743420254600832e-05,8.056199444988099e-05,9.421226728760393e-06,-1.0090429653652891e-08,8.24954555870127e-06,-9.003005350238328e-07,-3.196323774706118e-05,9.421226728746573e-06,5.9184836592378687e-05,0.0,0.0,0.0,0.0,0.0,0.0,0.0,0.0,0.0,0.0,0.0,0.0,0.0,0.0,0.0,0.0,0.0,0.0,0.0,0.0,0.0,0.0,0.0,0.0,0.0,0.0,0.0,0.0,0.0,0.0,0.0,0.0,0.0,0.0,0.0,0.0,0.0,0.0,0.0,0.0,0.0,0.0
364199795785,26,364199795785,camera_init,body,-0.017827983116018485,-0.017254861297842244,0.036834479506822025,-0.0016826056081074264,0.00158572757341026,-1.460984439462212e-05,0.9999973270429199,6.128599631228317e-06,-1.3275220624961344e-07,2.886783437614463e-06,-4.843126168875055e-07,3.0301708582302043e-06,6.035451261823448e-07,-1.3275220624977324e-07,1.6041797858282674e-06,-2.2146070176173337e-07,-5.504187038953704e-06,1.4317826768864503e-06,8.10052920753676e-06,2.8867834376143293e-06,-2.2146070176207771e-07,3.2637002822834407e-06,9.853245841155687e-07,-9.811396113621103e-06,-7.39780752170985e-07,-4.843126168865437e-07,-5.504187038954663e-06,9.853245841130869e-07,2.9530099686894702e-05,-1.1063248219196659e-05,-3.1784671643856314e-05,3.0301708582305757e-06,1.4317826768894734e-06,-9.811396113618997e-06,-1.106324821921678e-05,7.971305713453251e-05,9.973577449678056e-06,6.035451261815127e-07,8.100529207536707e-06,-7.397807521696482e-07,-3.17846716438483e-05,9.973577449665576e-06,5.824977251214444e-05,0.0,0.0,0.0,0.0,0.0,0.0,0.0,0.0,0.0,0.0,0.0,0.0,0.0,0.0,0.0,0.0,0.0,0.0,0.0,0.0,0.0,0.0,0.0,0.0,0.0,0.0,0.0,0.0,0.0,0.0,0.0,0.0,0.0,0.0,0.0,0.0,0.0,0.0,0.0,0.0,0.0,0.0
364299636356,27,364299636356,camera_init,body,-0.017333577636233298,-0.018885432253388214,0.03801562305403026,-0.0010944081763573617,0.0017825537417180631,0.0005578189520890147,0.9999976568027145,5.3833050356206155e-06,-1.1620847485898309e-07,2.4443734910691568e-06,-7.085097300223146e-07,2.653207892050223e-06,-2.179232343805921e-07,-1.1620847485919453e-07,1.6150079229379987e-06,-2.0278165486046497e-07,-5.610875877197395e-06,1.5481553295199735e-06,8.06173213325233e-06,2.444373491068704e-06,-2.0278165486074544e-07,2.9749614035226043e-06,6.806096953199445e-07,-9.913672436123744e-06,-1.0266849852580218e-06,-7.08509730021178e-07,-5.610875877198531e-06,6.806096953176808e-07,2.9941751637144137e-05,-1.0289488674648584e-05,-3.181162399068547e-05,2.6532078920519237e-06,1.5481553295227236e-06,-9.913672436122318e-06,-1.0289488674667127e-05,7.961080737475004e-05,9.606833524814324e-06,-2.179232343817413e-07,8.061732133251493e-06,-1.0266849852570138e-06,-3.181162399067789e-05,9.606833524803577e-06,5.7854910481117114e-05,0.0,0.0,0.0,0.0,0.0,0.0,0.0,0.0,0.0,0.0,0.0,0.0,0.0,0.0,0.0,0.0,0.0,0.0,0.0,0.0,0.0,0.0,0.0,0.0,0.0,0.0,0.0,0.0,0.0,0.0,0.0,0.0,0.0,0.0,0.0,0.0,0.0,0.0,0.0,0.0,0.0,0.0
364398682479,28,364398682479,camera_init,body,-0.020206261537060365,-0.022070407669328832,0.03528528980307016,-0.002239111444642091,0.0020979716472710962,0.00019236316758247147,0.9999952739344923,5.769192888253105e-06,-1.1889930449431432e-07,2.7971993397968305e-06,-4.0513914426581424e-07,1.8795311609218356e-06,8.992489906019095e-07,-1.188993044944045e-07,1.679288019204876e-06,-1.9805896094015864e-07,-5.59566038327582e-06,1.3139914388719163e-06,8.052391502550834e-06,2.797199339796669e-06,-1.9805896094042034e-07,3.2636231872341833e-06,9.044211156551086e-07,-1.0296299395722613e-05,-5.331485273099933e-07,-4.051391442653812e-07,-5.59566038327618e-06,9.044211156531075e-07,2.9134285382240174e-05,-9.85440778246926e-06,-3.108388775485528e-05,1.8795311609230263e-06,1.313991438874071e-06,-1.0296299395722642e-05,-9.854407782484975e-06,7.823965007125423e-05,9.265707567576272e-06,8.992489906015201e-07,8.052391502550046e-06,-5.331485273090357e-07,-3.1083887754848434e-05,9.26570756756763e-06,5.757567676260348e-05,0.0,0.0,0.0,0.0,0.0,0.0,0.0,0.0,0.0,0.0,0.0,0.0,0.0,0.0,0.0,0.0,0.0,0.0,0.0,0.0,0.0,0.0,0.0,0.0,0.0,0.0,0.0,0.0,0.0,0.0,0.0,0.0,0.0,0.0,0.0,0.0,0.0,0.0,0.0,0.0,0.0,0.0
364497317978,29,364497317978,camera_init,body,-0.01708524443156783,-0.030054520591298692,0.034028842477324676,-0.002485867095613368,0.0016343053685665034,0.0005354913641351631,0.9999954313694372,5.44300732007383e-06,1.2194886782535777e-08,2.4680991220319553e-06,-1.1127184789071952e-06,2.2192786060226884e-06,8.570830744151221e-07,1.219488678239689e-08,1.6647582485051924e-06,-6.078907413982122e-08,-5.57681432859234e-06,1.1116940210833102e-06,8.080829704675477e-06,2.4680991220319214e-06,-6.078907414004719e-08,3.030947122165997e-06,2.0908305808171845e-07,-1.007938227643512e-05,-1.4639505406017485e-07,-1.1127184789064945e-06,-5.5768143285926495e-06,2.090830580798768e-07,2.894423711483271e-05,-8.385637200538531e-06,-3.098302861551412e-05,2.219278606023521e-06,1.1116940210852944e-06,-1.0079382276433872e-05,-8.385637200552632e-06,7.727568309358855e-05,7.634929015795894e-06,8.570830744143457e-07,8.080829704674856e-06,-1.4639505405954784e-07,-3.0983028615507585e-05,7.634929015788584e-06,5.7369461020797234e-05,0.0,0.0,0.0,0.0,0.0,0.0,0.0,0.0,0.0,0.0,0.0,0.0,0.0,0.0,0.0,0.0,0.0,0.0,0.0,0.0,0.0,0.0,0.0,0.0,0.0,0.0,0.0,0.0,0.0,0.0,0.0,0.0,0.0,0.0,0.0,0.0,0.0,0.0,0.0,0.0,0.0,0.0
364595834831,30,364595834831,camera_init,body,-0.0204567318298341,-0.031023150061007497,0.035074019519747084,-0.0030704516126728665,0.002218690687418943,0.0001043692807481527,0.999992819397011,5.525894859865453e-06,-1.8552263929339826e-07,2.543076126079971e-06,-4.0834982124275187e-07,2.2649338437755596e-06,3.340820400107138e-07,-1.85522639293497e-07,1.6404207426238851e-06,-1.7118500308200819e-07,-5.432002793546162e-06,1.0248947090516022e-06,7.85123606765476e-06,2.5430761260800207e-06,-1.7118500308220748e-07,3.0104847392964522e-06,5.951124051678896e-07,-9.690946944196534e-06,-4.930890587744647e-07,-4.083498212421242e-07,-5.432002793546751e-06,5.951124051663089e-07,2.8635926718615582e-05,-8.273663883515197e-06,-3.0393283892936095e-05,2.2649338437761483e-06,1.0248947090532325e-06,-9.690946944195627e-06,-8.273663883527369e-06,7.547765554997174e-05,7.669429733287321e-06,3.3408204001015855e-07,7.85123606765401e-06,-4.930890587739374e-07,-3.0393283892930135e-05,7.6694297332816e-06,5.707718238903959e-05,0.0,0.0,0.0,0.0,0.0,0.0,0.0,0.0,0.0,0.0,0.0,0.0,0.0,0.0,0.0,0.0,0.0,0.0,0.0,0.0,0.0,0.0,0.0,0.0,0.0,0.0,0.0,0.0,0.0,0.0,0.0,0.0,0.0,0.0,0.0,0.0,0.0,0.0,0.0,0.0,0.0,0.0
364694475191,31,364694475191,camera_init,body,-0.0187522068222779,-0.0330249274182263,0.035437711276022056,-0.0027659854733555972,0.001951259853273208,0.0004422749976740754,0.9999941731341113,6.072615567823879e-06,-1.7563709938148777e-07,2.7155179347677068e-06,-5.698537458826832e-07,3.1361614272364083e-06,5.231509393965937e-07,-1.7563709938159487e-07,1.5517599109555037e-06,-1.8109645467916944e-07,-5.1940522708248515e-06,1.1160215323578333e-06,7.686586554827484e-06,2.7155179347675217e-06,-1.81096454679274e-07,3.033239892163659e-06,5.392301249490172e-07,-9.172022911256823e-06,-4.6157384900568397e-07,-5.698537458822007e-07,-5.194052270825232e-06,5.392301249480331e-07,2.7209469610562276e-05,-7.946355987283615e-06,-2.9470094508559806e-05,3.1361614272383022e-06,1.116021532359135e-06,-9.172022911257741e-06,-7.946355987293691e-06,7.48645963008772e-05,7.896361178878445e-06,5.231509393961799e-07,7.686586554826337e-06,-4.6157384900556846e-07,-2.947009450855486e-05,7.896361178873983e-06,5.601656399565721e-05,0.0,0.0,0.0,0.0,0.0,0.0,0.0,0.0,0.0,0.0,0.0,0.0,0.0,0.0,0.0,0.0,0.0,0.0,0.0,0.0,0.0,0.0,0.0,0.0,0.0,0.0,0.0,0.0,0.0,0.0,0.0,0.0,0.0,0.0,0.0,0.0,0.0,0.0,0.0,0.0,0.0,0.0
364799632661,32,364799632661,camera_init,body,-0.018954034711660187,-0.034291710433410484,0.03351039069407401,-0.003071984353882685,0.0016964098158858984,0.0004880868601300973,0.9999937234188454,6.4680585874353315e-06,-2.0441000171278523e-07,2.854326031575669e-06,-8.356265187750677e-07,2.7452809422514323e-06,4.960661264376779e-07,-2.044100017129445e-07,1.701027291487981e-06,-1.478284589956276e-07,-5.428416103025201e-06,9.64616332290584e-07,7.870320137047196e-06,2.8543260315755377e-06,-1.478284589957596e-07,3.197021098172766e-06,2.683377362133593e-07,-9.81380986654617e-06,-2.5274797211536704e-07,-8.356265187744144e-07,-5.428416103025488e-06,2.6833773621210973e-07,2.84216958070357e-05,-8.151811383788083e-06,-2.9610659380520206e-05,2.7452809422527554e-06,9.64616332291999e-07,-9.813809866545651e-06,-8.151811383798359e-06,7.652994964891304e-05,7.225082192444749e-06,4.960661264370697e-07,7.870320137046864e-06,-2.527479721150909e-07,-2.9610659380515307e-05,7.225082192440339e-06,5.524748718955114e-05,0.0,0.0,0.0,0.0,0.0,0.0,0.0,0.0,0.0,0.0,0.0,0.0,0.0,0.0,0.0,0.0,0.0,0.0,0.0,0.0,0.0,0.0,0.0,0.0,0.0,0.0,0.0,0.0,0.0,0.0,0.0,0.0,0.0,0.0,0.0,0.0,0.0,0.0,0.0,0.0,0.0,0.0
364899467400,33,364899467400,camera_init,body,-0.018319130613928068,-0.03383583282181353,0.03466321244872353,-0.0032487507561968494,0.0015562803609138318,0.00033752196639891025,0.999993454823024,5.7367268570899456e-06,-8.191731390663363e-08,2.6550078315953813e-06,-3.7827188026609964e-07,2.623266838021562e-06,7.040462020600977e-08,-8.191731390672108e-08,1.6723941667847359e-06,-1.5610847377044138e-07,-5.500434434054016e-06,1.1603907825281995e-06,8.071975751023428e-06,2.655007831595592e-06,-1.5610847377054156e-07,3.0980001607962046e-06,6.948948734949897e-07,-9.702382790879323e-06,-6.995435465109184e-07,-3.7827188026568353e-07,-5.500434434054484e-06,6.948948734941509e-07,2.8425810681866505e-05,-8.335157502559854e-06,-3.0097816475724615e-05,2.6232668380229988e-06,1.1603907825294307e-06,-9.70238279088098e-06,-8.335157502568709e-06,7.678686029794205e-05,7.362826255719524e-06,7.040462020565973e-08,8.071975751022621e-06,-6.995435465108019e-07,-3.0097816475720173e-05,7.362826255715941e-06,5.656563751859943e-05,0.0,0.0,0.0,0.0,0.0,0.0,0.0,0.0,0.0,0.0,0.0,0.0,0.0,0.0,0.0,0.0,0.0,0.0,0.0,0.0,0.0,0.0,0.0,0.0,0.0,0.0,0.0,0.0,0.0,0.0,0.0,0.0,0.0,0.0,0.0,0.0,0.0,0.0,0.0,0.0,0.0,0.0
364999317700,34,364999317700,camera_init,body,-0.018885942361981913,-0.030353459110555273,0.039691290745148385,-0.0026938582320544936,0.002003310395453377,0.00030958387999716075,0.9999943170004064,5.466118883598236e-06,7.0487828438035175e-09,2.4964037966714347e-06,-7.675772635946491e-07,2.4557666492758294e-06,5.698781855614595e-07,7.048782843707776e-09,1.6233583466637925e-06,-1.3967442651964015e-07,-5.341451336921454e-06,1.3444176136177854e-06,7.929678729377168e-06,2.4964037966711924e-06,-1.3967442651973626e-07,2.9737225774064852e-06,5.760728701818576e-07,-9.636170124808618e-06,-5.743906084008077e-07,-7.67577263594192e-07,-5.341451336922983e-06,5.760728701806934e-07,2.8479099908681913e-05,-9.542774196818715e-06,-2.999621080311453e-05,2.455766649276104e-06,1.3444176136189433e-06,-9.636170124806868e-06,-9.54277419682655e-06,7.56459232135572e-05,8.542663269267101e-06,5.698781855610795e-07,7.929678729377729e-06,-5.743906084005481e-07,-2.9996210803110586e-05,8.542663269263887e-06,5.6162664912681455e-05,0.0,0.0,0.0,0.0,0.0,0.0,0.0,0.0,0.0,0.0,0.0,0.0,0.0,0.0,0.0,0.0,0.0,0.0,0.0,0.0,0.0,0.0,0.0,0.0,0.0,0.0,0.0,0.0,0.0,0.0,0.0,0.0,0.0,0.0,0.0,0.0,0.0,0.0,0.0,0.0,0.0,0.0
365099129720,35,365099129720,camera_init,body,-0.01922579820959518,-0.026080723253326547,0.04063065445175192,-0.003030185375047099,0.0017853941872709258,-0.0001036086209186532,0.9999938097855635,5.899637003580437e-06,-9.934359988426081e-08,2.7938610406735193e-06,-1.500310664945193e-07,2.4384721294003552e-06,1.7557795737000711e-07,-9.93435998842846e-08,1.562866323506689e-06,-1.687516091716496e-07,-5.0599936577597886e-06,1.0478956732796223e-06,7.769309903310902e-06,2.7938610406733253e-06,-1.687516091717201e-07,3.12251303626898e-06,8.233063264593968e-07,-9.304319311579549e-06,-6.652207381530517e-07,-1.5003106649419711e-07,-5.059993657760066e-06,8.233063264586865e-07,2.680927141111225e-05,-8.155678839282969e-06,-2.8768227457317392e-05,2.4384721294006166e-06,1.0478956732803472e-06,-9.304319311578736e-06,-8.155678839289335e-06,7.347671512477874e-05,7.108236612891878e-06,1.755779573698213e-07,7.7693099033106e-06,-6.652207381530087e-07,-2.8768227457313885e-05,7.1082366128897685e-06,5.547615064150862e-05,0.0,0.0,0.0,0.0,0.0,0.0,0.0,0.0,0.0,0.0,0.0,0.0,0.0,0.0,0.0,0.0,0.0,0.0,0.0,0.0,0.0,0.0,0.0,0.0,0.0,0.0,0.0,0.0,0.0,0.0,0.0,0.0,0.0,0.0,0.0,0.0,0.0,0.0,0.0,0.0,0.0,0.0
365199793940,36,365199793940,camera_init,body,-0.02053763409764598,-0.026260449557770422,0.043227609442601754,-0.002651993029632633,0.002039580226359085,0.000155253997249645,0.9999943914551075,6.2482425885419584e-06,-8.047760177092126e-08,3.0324965553190253e-06,-9.262056718247719e-08,2.1128170301936627e-06,1.345902227057621e-07,-8.047760177096981e-08,1.5228026915351916e-06,-1.258110088815195e-07,-4.828761143894443e-06,8.338700123706333e-07,7.469673079852064e-06,3.0324965553189177e-06,-1.2581100888160686e-07,3.270246563925751e-06,7.472530912543401e-07,-9.46390307525884e-06,-5.057006565565336e-07,-9.262056718209848e-08,-4.828761143894996e-06,7.472530912535224e-07,2.5913635479846412e-05,-7.691489094748649e-06,-2.778118311172792e-05,2.1128170301931274e-06,8.338700123713566e-07,-9.463903075258255e-06,-7.691489094754415e-06,7.377298925620115e-05,5.989569654268397e-06,1.3459022270544747e-07,7.469673079852622e-06,-5.057006565563857e-07,-2.7781183111724653e-05,5.989569654266891e-06,5.530133051429579e-05,0.0,0.0,0.0,0.0,0.0,0.0,0.0,0.0,0.0,0.0,0.0,0.0,0.0,0.0,0.0,0.0,0.0,0.0,0.0,0.0,0.0,0.0,0.0,0.0,0.0,0.0,0.0,0.0,0.0,0.0,0.0,0.0,0.0,0.0,0.0,0.0,0.0,0.0,0.0,0.0,0.0,0.0
365299530186,37,365299530186,camera_init,body,-0.01779003597588758,-0.03130397464076385,0.04235695821012845,-0.0019038634830641373,0.001839760769189452,0.0007972252966496085,0.9999961775006837,5.43496759103908e-06,-1.300837220362708e-07,2.4680855052148956e-06,-4.607672595692069e-07,2.5645808511193394e-06,-2.384219722063124e-07,-1.3008372203636417e-07,1.5402602084545034e-06,-1.2638912242583496e-07,-4.9285217446119995e-06,8.150458658194907e-07,7.533643738288738e-06,2.4680855052152353e-06,-1.2638912242593631e-07,2.8694814173599315e-06,3.727829178979017e-07,-8.930721898898235e-06,-5.177708756357651e-07,-4.607672595687113e-07,-4.928521744612636e-06,3.727829178971299e-07,2.624863706053743e-05,-7.080768168419225e-06,-2.766756965202711e-05,2.564580851118806e-06,8.150458658203463e-07,-8.930721898896998e-06,-7.080768168424509e-06,7.083153064949246e-05,5.453707018540175e-06,-2.384219722067363e-07,7.533643738288722e-06,-5.177708756355971e-07,-2.7667569652024056e-05,5.453707018538713e-06,5.384445512044816e-05,0.0,0.0,0.0,0.0,0.0,0.0,0.0,0.0,0.0,0.0,0.0,0.0,0.0,0.0,0.0,0.0,0.0,0.0,0.0,0.0,0.0,0.0,0.0,0.0,0.0,0.0,0.0,0.0,0.0,0.0,0.0,0.0,0.0,0.0,0.0,0.0,0.0,0.0,0.0,0.0,0.0,0.0
365397079180,38,365397079180,camera_init,body,-0.01636008825362667,-0.032814903776992074,0.04147386118543744,-0.0021436650796225706,0.0017973558496181788,0.0006177729273327281,0.9999958962758738,6.4803721613182955e-06,-1.6982705079134222e-07,3.1875658306691888e-06,1.335286822770301e-07,2.520873639954342e-06,-2.044022297691124e-07,-1.6982705079137047e-07,1.5835482613767838e-06,-1.6196690549796681e-07,-5.0246255821003226e-06,7.215979000469307e-07,7.5558151078526255e-06,3.187565830669108e-06,-1.6196690549801814e-07,3.313535465126029e-06,8.227894521581058e-07,-8.715691055662764e-06,-6.395435100486005e-07,1.3352868227731863e-07,-5.024625582100244e-06,8.22789452157578e-07,2.6506273760127943e-05,-6.8979514566235975e-06,-2.7856506383361592e-05,2.52087363995467e-06,7.215979000474885e-07,-8.715691055662117e-06,-6.897951456628384e-06,6.961840055136795e-05,5.24976185857773e-06,-2.0440222976926457e-07,7.555815107852723e-06,-6.395435100485786e-07,-2.78565063833586e-05,5.249761858576504e-06,5.42712755823268e-05,0.0,0.0,0.0,0.0,0.0,0.0,0.0,0.0,0.0,0.0,0.0,0.0,0.0,0.0,0.0,0.0,0.0,0.0,0.0,0.0,0.0,0.0,0.0,0.0,0.0,0.0,0.0,0.0,0.0,0.0,0.0,0.0,0.0,0.0,0.0,0.0,0.0,0.0,0.0,0.0,0.0,0.0
365499262132,39,365499262132,camera_init,body,-0.0167457643876743,-0.03533722419068135,0.03983964932434365,-0.0024955417185005325,0.0017097861745889703,0.0006648225180281847,0.9999952034453911,6.469050376242561e-06,-2.599333863209357e-07,2.9516715739899305e-06,-1.7858073109436313e-07,3.742146650453048e-06,7.600101850065558e-08,-2.599333863209972e-07,1.5523566191996127e-06,-2.184863111344968e-07,-5.0409681414864155e-06,8.135943821002276e-07,7.457511208019912e-06,2.951671573989656e-06,-2.1848631113451807e-07,2.998314346523015e-06,5.181277699203078e-07,-7.903081654897505e-06,-5.064054228132478e-07,-1.7858073109398535e-07,-5.040968141486673e-06,5.18127769919846e-07,2.649809636577787e-05,-6.178449480356952e-06,-2.8115764250163487e-05,3.742146650452796e-06,8.135943821006185e-07,-7.903081654896066e-06,-6.178449480361282e-06,6.943350742233845e-05,5.596162578494457e-06,7.600101850039507e-08,7.457511208019524e-06,-5.064054228132121e-07,-2.8115764250160787e-05,5.596162578493588e-06,5.5043921621632825e-05,0.0,0.0,0.0,0.0,0.0,0.0,0.0,0.0,0.0,0.0,0.0,0.0,0.0,0.0,0.0,0.0,0.0,0.0,0.0,0.0,0.0,0.0,0.0,0.0,0.0,0.0,0.0,0.0,0.0,0.0,0.0,0.0,0.0,0.0,0.0,0.0,0.0,0.0,0.0,0.0,0.0,0.0
365599213581,40,365599213581,camera_init,body,-0.01874508758231305,-0.03456747801917372,0.03931240152471699,-0.002530037291971569,0.0018922097956090224,0.0006352137114625267,0.9999948074649851,6.323327532565523e-06,-2.4336926737760377e-07,3.1929714552874733e-06,8.312694939151692e-08,2.1972190094633284e-06,3.771856271304559e-07,-2.433692673776287e-07,1.6432203958721095e-06,-2.4224806580593667e-07,-5.1858104059578e-06,9.148282226461345e-07,7.675443199047585e-06,3.192971455287397e-06,-2.4224806580598865e-07,3.3525777752352594e-06,7.390347183782344e-07,-8.669466517451752e-06,-5.10761463951494e-07,8.312694939170038e-08,-5.185810405957996e-06,7.390347183778135e-07,2.6407259600361132e-05,-6.185318226284342e-06,-2.8078615346786985e-05,2.1972190094635262e-06,9.148282226465404e-07,-8.669466517451575e-06,-6.1853182262881485e-06,6.683276144901017e-05,6.3139060210159305e-06,3.7718562713033674e-07,7.675443199047081e-06,-5.107614639514227e-07,-2.8078615346784528e-05,6.313906021015233e-06,5.5133085400524694e-05,0.0,0.0,0.0,0.0,0.0,0.0,0.0,0.0,0.0,0.0,0.0,0.0,0.0,0.0,0.0,0.0,0.0,0.0,0.0,0.0,0.0,0.0,0.0,0.0,0.0,0.0,0.0,0.0,0.0,0.0,0.0,0.0,0.0,0.0,0.0,0.0,0.0,0.0,0.0,0.0,0.0,0.0
365698391439,41,365698391439,camera_init,body,-0.018633603651783244,-0.03811383580314798,0.03875021072380532,-0.002776312519369543,0.001887293922612705,0.0006821588664582651,0.9999941324176488,6.4336191722623754e-06,-1.0016568761975447e-07,3.041571271865723e-06,-6.987714351345108e-07,2.8133780358690254e-06,4.557972862892704e-07,-1.0016568761980154e-07,1.5891323099935154e-06,-1.0989561395265273e-07,-5.121561290895053e-06,7.871197113395356e-07,7.749473518839241e-06,3.041571271865594e-06,-1.0989561395267889e-07,3.198150337731534e-06,1.1809377129385271e-07,-8.644952740174516e-06,-1.7702358405456344e-07,-6.987714351341767e-07,-5.121561290894589e-06,1.180937712934401e-07,2.674076585575007e-05,-5.401262379805776e-06,-2.8592308972718694e-05,2.813378035869649e-06,7.871197113398822e-07,-8.644952740174731e-06,-5.40126237980971e-06,7.030711681281126e-05,5.219743297092001e-06,4.557972862890098e-07,7.749473518839104e-06,-1.7702358405465963e-07,-2.859230897271635e-05,5.21974329709123e-06,5.543996667114895e-05,0.0,0.0,0.0,0.0,0.0,0.0,0.0,0.0,0.0,0.0,0.0,0.0,0.0,0.0,0.0,0.0,0.0,0.0,0.0,0.0,0.0,0.0,0.0,0.0,0.0,0.0,0.0,0.0,0.0,0.0,0.0,0.0,0.0,0.0,0.0,0.0,0.0,0.0,0.0,0.0,0.0,0.0
365797106987,42,365797106987,camera_init,body,-0.020280062287522327,-0.0355037475895108,0.0385439302105558,-0.002706820260811574,0.0017003299602821264,0.0007800597877483407,0.9999945867397638,6.3968526205629425e-06,-2.2261943955428951e-07,3.012187145815216e-06,-3.9508386104694685e-07,2.6287972372923866e-06,6.582602427546517e-07,-2.2261943955433012e-07,1.6720906504298373e-06,-1.418434005943625e-07,-5.248087171175407e-06,5.727889010209546e-07,7.725998240878667e-06,3.012187145815023e-06,-1.4184340059438134e-07,3.1745161853576347e-06,1.8584849194207856e-07,-8.746870029334329e-06,-3.342194732398572e-09,-3.950838610466678e-07,-5.248087171175625e-06,1.8584849194158942e-07,2.7210477605979856e-05,-4.937068039477069e-06,-2.858524618440237e-05,2.6287972372928834e-06,5.727889010212381e-07,-8.746870029334364e-06,-4.937068039480906e-06,7.02656669610998e-05,4.8155969781952825e-06,6.582602427544703e-07,7.725998240878453e-06,-3.3421947324308388e-09,-2.858524618440007e-05,4.815596978194579e-06,5.524784229984914e-05,0.0,0.0,0.0,0.0,0.0,0.0,0.0,0.0,0.0,0.0,0.0,0.0,0.0,0.0,0.0,0.0,0.0,0.0,0.0,0.0,0.0,0.0,0.0,0.0,0.0,0.0,0.0,0.0,0.0,0.0,0.0,0.0,0.0,0.0,0.0,0.0,0.0,0.0,0.0,0.0,0.0,0.0
365895302481,43,365895302481,camera_init,body,-0.018509272697629607,-0.038920655451813294,0.03720735306158567,-0.003526533424480319,0.0016787262094759817,0.00047974196078781915,0.9999922576140136,6.7032390996451665e-06,-2.9574499488003323e-07,3.0863428208276587e-06,-1.66007366953622e-07,3.241040256830006e-06,-5.6468962152189026e-08,-2.957449948800645e-07,1.634208416365673e-06,-1.97419388734193e-07,-5.218061405441109e-06,6.761714115891525e-07,7.647149312121625e-06,3.086342820827584e-06,-1.9741938873419562e-07,3.1515848610709886e-06,3.4609375225919065e-07,-8.417779935392709e-06,-4.32147342900973e-07,-1.6600736695338727e-07,-5.218061405441602e-06,3.4609375225893496e-07,2.6670398226276543e-05,-4.781542000410553e-06,-2.8288971054950487e-05,3.2410402568306986e-06,6.761714115894964e-07,-8.417779935393068e-06,-4.781542000414065e-06,7.048320748312725e-05,4.936966853022667e-06,-5.646896215227892e-08,7.647149312121532e-06,-4.321473429011586e-07,-2.8288971054948417e-05,4.936966853022096e-06,5.500444192298497e-05,0.0,0.0,0.0,0.0,0.0,0.0,0.0,0.0,0.0,0.0,0.0,0.0,0.0,0.0,0.0,0.0,0.0,0.0,0.0,0.0,0.0,0.0,0.0,0.0,0.0,0.0,0.0,0.0,0.0,0.0,0.0,0.0,0.0,0.0,0.0,0.0,0.0,0.0,0.0,0.0,0.0,0.0
365994404210,44,365994404210,camera_init,body,-0.018495622301006345,-0.03611895509109252,0.03450728895033221,-0.0020207279594971262,0.001697687348092329,0.001301895230734956,0.9999956697831197,6.610518855643982e-06,-2.8312576687410265e-07,2.8425312265617725e-06,-4.025323896869487e-07,3.1606454881139604e-06,-1.8361676458813766e-07,-2.8312576687414543e-07,1.6327167179674734e-06,-1.3583953186525188e-07,-5.030342579211014e-06,4.869565683483338e-07,7.741844760550561e-06,2.842531226561505e-06,-1.358395318652767e-07,3.0548569543116112e-06,1.2553985514717973e-07,-8.867702221384689e-06,-2.259916957646794e-07,-4.0253238968661034e-07,-5.030342579211245e-06,1.255398551467757e-07,2.665371900987424e-05,-5.3444548566889935e-06,-2.7826486090328468e-05,3.1606454881141285e-06,4.869565683487196e-07,-8.867702221383989e-06,-5.344454856692582e-06,7.118482092527889e-05,4.174506388338926e-06,-1.8361676458840262e-07,7.74184476055011e-06,-2.2599169576469466e-07,-2.7826486090326435e-05,4.174506388338175e-06,5.370478949778911e-05,0.0,0.0,0.0,0.0,0.0,0.0,0.0,0.0,0.0,0.0,0.0,0.0,0.0,0.0,0.0,0.0,0.0,0.0,0.0,0.0,0.0,0.0,0.0,0.0,0.0,0.0,0.0,0.0,0.0,0.0,0.0,0.0,0.0,0.0,0.0,0.0,0.0,0.0,0.0,0.0,0.0,0.0
366099632843,45,366099632843,camera_init,body,-0.016235094297677513,-0.03709103451613273,0.03316464272847472,-0.004285201600006647,0.0013228183170027811,-0.00020537130938197762,0.9999899224600078,6.294861580708441e-06,-7.375755571235878e-08,2.929285942886113e-06,-7.09488800263957e-07,3.0960222663447955e-06,5.78623875963987e-07,-7.375755571241476e-08,1.6159312684648131e-06,-9.062515088350382e-08,-5.156536819592608e-06,6.896461321149815e-07,7.740866170299079e-06,2.929285942885856e-06,-9.062515088351436e-08,3.1647075837775394e-06,1.5856427755250674e-07,-8.707200395991117e-06,-9.726459096745137e-08,-7.0948880026373e-07,-5.156536819593315e-06,1.5856427755216772e-07,2.7319960991419593e-05,-6.125359269120783e-06,-2.864702807199426e-05,3.0960222663454516e-06,6.896461321153975e-07,-8.707200395991584e-06,-6.1253592691242566e-06,7.072324217211639e-05,4.960982778722279e-06,5.786238759637886e-07,7.740866170299292e-06,-9.726459096752837e-08,-2.864702807199231e-05,4.960982778721433e-06,5.494276293811255e-05,0.0,0.0,0.0,0.0,0.0,0.0,0.0,0.0,0.0,0.0,0.0,0.0,0.0,0.0,0.0,0.0,0.0,0.0,0.0,0.0,0.0,0.0,0.0,0.0,0.0,0.0,0.0,0.0,0.0,0.0,0.0,0.0,0.0,0.0,0.0,0.0,0.0,0.0,0.0,0.0,0.0,0.0
366199468884,46,366199468884,camera_init,body,-0.01829616454495487,-0.03612801669538186,0.03349090180081637,-0.0022627339561299446,0.0015704777963932359,0.0009553427912995436,0.9999957504683137,6.180102560121174e-06,-2.867881644397594e-08,2.87961593530519e-06,-6.713764021813181e-07,2.7972890963230488e-06,7.73962031129056e-07,-2.8678816444038304e-08,1.7209444791686654e-06,-1.4138580137880662e-07,-5.425517438634792e-06,1.0835892800470382e-06,8.080369883037905e-06,2.8796159353050257e-06,-1.4138580137885323e-07,3.081347147925301e-06,3.1942054635250965e-07,-8.767614515121519e-06,-2.3248606293860911e-07,-6.71376402181068e-07,-5.425517438634961e-06,3.1942054635207915e-07,2.819515970773694e-05,-7.144653491883369e-06,-2.939451362869259e-05,2.7972890963230238e-06,1.0835892800475289e-06,-8.767614515120304e-06,-7.144653491886753e-06,7.138222760697552e-05,6.295950408018477e-06,7.739620311287989e-07,8.080369883038873e-06,-2.3248606293848447e-07,-2.9394513628690595e-05,6.295950408017614e-06,5.6326196147155344e-05,0.0,0.0,0.0,0.0,0.0,0.0,0.0,0.0,0.0,0.0,0.0,0.0,0.0,0.0,0.0,0.0,0.0,0.0,0.0,0.0,0.0,0.0,0.0,0.0,0.0,0.0,0.0,0.0,0.0,0.0,0.0,0.0,0.0,0.0,0.0,0.0,0.0,0.0,0.0,0.0,0.0,0.0
366299302259,47,366299302259,camera_init,body,-0.017893510290118434,-0.035873398804676104,0.035637821987966986,-0.002680919636667443,0.0014420249321913186,0.0006329301916275468,0.9999951663050022,6.098691488157371e-06,2.5860581427590836e-08,2.7833124846036817e-06,-3.228528908165619e-07,2.8271892117117988e-06,4.1377947211857247e-07,2.5860581427566927e-08,1.6641941382427637e-06,-7.590761155555299e-08,-5.1729195918349285e-06,7.645750737154883e-07,7.94799686357024e-06,2.7833124846039375e-06,-7.59076115555831e-08,2.9721550876152605e-06,4.627174743509466e-07,-8.480509889508942e-06,-3.3932381023942276e-07,-3.2285289081645417e-07,-5.172919591834906e-06,4.627174743508403e-07,2.6664242552353007e-05,-6.097484972554416e-06,-2.84754409132449e-05,2.8271892117130155e-06,7.645750737156821e-07,-8.48050988951093e-06,-6.097484972557323e-06,6.892049397749791e-05,5.172923116677522e-06,4.137794721183745e-07,7.947996863570122e-06,-3.3932381023940354e-07,-2.8475440913243058e-05,5.17292311667696e-06,5.618209697569524e-05,0.0,0.0,0.0,0.0,0.0,0.0,0.0,0.0,0.0,0.0,0.0,0.0,0.0,0.0,0.0,0.0,0.0,0.0,0.0,0.0,0.0,0.0,0.0,0.0,0.0,0.0,0.0,0.0,0.0,0.0,0.0,0.0,0.0,0.0,0.0,0.0,0.0,0.0,0.0,0.0,0.0,0.0
366399056056,48,366399056056,camera_init,body,-0.018975365753569503,-0.03619001285364537,0.038481036421374536,-0.0028869617831654626,0.0017892395674673077,0.0006365315134331033,0.9999940294327089,6.383352684206448e-06,-8.891174854762984e-08,3.128687366702033e-06,-4.0972355597966144e-07,2.460734839924478e-06,3.9363282576578474e-07,-8.891174854766052e-08,1.597091944255986e-06,-1.2355403659843377e-07,-5.06764143140485e-06,7.630761396010952e-07,7.709009675526289e-06,3.128687366701905e-06,-1.2355403659844873e-07,3.230917391961633e-06,3.4866546561454154e-07,-8.509294233905928e-06,-2.6980320245783763e-07,-4.0972355597955186e-07,-5.067641431404999e-06,3.4866546561433375e-07,2.6577666316745743e-05,-6.08993034379485e-06,-2.8276778055176783e-05,2.460734839925041e-06,7.630761396013958e-07,-8.509294233906078e-06,-6.089930343797637e-06,6.799271000202165e-05,5.135296222436927e-06,3.936328257656773e-07,7.70900967552666e-06,-2.698032024578968e-07,-2.8276778055174943e-05,5.135296222436343e-06,5.587908031222032e-05,0.0,0.0,0.0,0.0,0.0,0.0,0.0,0.0,0.0,0.0,0.0,0.0,0.0,0.0,0.0,0.0,0.0,0.0,0.0,0.0,0.0,0.0,0.0,0.0,0.0,0.0,0.0,0.0,0.0,0.0,0.0,0.0,0.0,0.0,0.0,0.0,0.0,0.0,0.0,0.0,0.0,0.0
