%time,field.header.seq,field.header.stamp,field.header.frame_id,field.child_frame_id,field.pose.pose.position.x,field.pose.pose.position.y,field.pose.pose.position.z,field.pose.pose.orientation.x,field.pose.pose.orientation.y,field.pose.pose.orientation.z,field.pose.pose.orientation.w,field.pose.covariance0,field.pose.covariance1,field.pose.covariance2,field.pose.covariance3,field.pose.covariance4,field.pose.covariance5,field.pose.covariance6,field.pose.covariance7,field.pose.covariance8,field.pose.covariance9,field.pose.covariance10,field.pose.covariance11,field.pose.covariance12,field.pose.covariance13,field.pose.covariance14,field.pose.covariance15,field.pose.covariance16,field.pose.covariance17,field.pose.covariance18,field.pose.covariance19,field.pose.covariance20,field.pose.covariance21,field.pose.covariance22,field.pose.covariance23,field.pose.covariance24,field.pose.covariance25,field.pose.covariance26,field.pose.covariance27,field.pose.covariance28,field.pose.covariance29,field.pose.covariance30,field.pose.covariance31,field.pose.covariance32,field.pose.covariance33,field.pose.covariance34,field.pose.covariance35,field.twist.twist.linear.x,field.twist.twist.linear.y,field.twist.twist.linear.z,field.twist.twist.angular.x,field.twist.twist.angular.y,field.twist.twist.angular.z,field.twist.covariance0,field.twist.covariance1,field.twist.covariance2,field.twist.covariance3,field.twist.covariance4,field.twist.covariance5,field.twist.covariance6,field.twist.covariance7,field.twist.covariance8,field.twist.covariance9,field.twist.covariance10,field.twist.covariance11,field.twist.covariance12,field.twist.covariance13,field.twist.covariance14,field.twist.covariance15,field.twist.covariance16,field.twist.covariance17,field.twist.covariance18,field.twist.covariance19,field.twist.covariance20,field.twist.covariance21,field.twist.covariance22,field.twist.covariance23,field.twist.covariance24,field.twist.covariance25,field.twist.covariance26,field.twist.covariance27,field.twist.covariance28,field.twist.covariance29,field.twist.covariance30,field.twist.covariance31,field.twist.covariance32,field.twist.covariance33,field.twist.covariance34,field.twist.covariance35
361599265415,0,361599265415,camera_init,body,-0.012666547268163969,-0.009333029246945972,0.029792199012346064,-0.0014149107119221778,0.002738032123651611,0.0005277232602252276,0.9999951113460149,0.0,0.0,0.0,0.0,0.0,0.0,0.0,0.0,0.0,0.0,0.0,0.0,0.0,0.0,0.0,0.0,0.0,0.0,0.0,0.0,0.0,0.0,0.0,0.0,0.0,0.0,0.0,0.0,0.0,0.0,0.0,0.0,0.0,0.0,0.0,0.0,0.0,0.0,0.0,0.0,0.0,0.0,0.0,0.0,0.0,0.0,0.0,0.0,0.0,0.0,0.0,0.0,0.0,0.0,0.0,0.0,0.0,0.0,0.0,0.0,0.0,0.0,0.0,0.0,0.0,0.0,0.0,0.0,0.0,0.0,0.0,0.0,0.0,0.0,0.0,0.0,0.0,0.0
361699507625,1,361699507625,camera_init,body,-0.026054215531968992,-0.0027061520057781903,0.039589037321733946,-0.0007635696167207863,0.0029183830771552185,-0.00048117160775289745,0.9999953342268858,2.923124237552699e-06,5.156941618029782e-08,8.445692304182857e-07,-6.889982606886477e-07,3.84450140730741e-06,-2.863608382984808e-07,5.1569416553456917e-08,1.627781065494105e-06,-5.362336478677338e-07,-5.579136011041319e-06,4.100645579971986e-06,1.0024487052299504e-05,8.445692313411076e-07,-5.362336470358495e-07,3.152422957564127e-06,2.553018656594472e-06,-1.7648161430274412e-05,-3.597938125721314e-06,-6.889982632290553e-07,-5.579136025946063e-06,2.553018665546838e-06,2.8890601890152467e-05,-2.1560348055983388e-05,-3.368393562575554e-05,3.844501421906843e-06,4.100645581497702e-06,-1.7648161447671087e-05,-2.156034805802834e-05,0.0001348147139403899,2.5602115941881025e-05,-2.863608365099809e-07,1.0024487058503742e-05,-3.5979381280652975e-06,-3.368393562378207e-05,2.560211594098222e-05,7.750988515442536e-05,0.0,0.0,0.0,0.0,0.0,0.0,0.0,0.0,0.0,0.0,0.0,0.0,0.0,0.0,0.0,0.0,0.0,0.0,0.0,0.0,0.0,0.0,0.0,0.0,0.0,0.0,0.0,0.0,0.0,0.0,0.0,0.0,0.0,0.0,0.0,0.0,0.0,0.0,0.0,0.0,0.0,0.0
361799224894,2,361799224894,camera_init,body,-0.02391325382868122,-0.012012201542730206,0.03516395764260136,-0.001401064019578331,0.002186577526297745,0.0003186100514237808,0.9999965771871276,2.8312755540344043e-06,-5.2087541186837494e-08,9.679244482951745e-07,-1.2353719751525406e-07,2.7269348373056067e-06,-5.524738500556025e-07,-5.208754118693065e-08,1.8401716631339396e-06,-4.4430202231094956e-07,-6.140114263941665e-06,3.1713179604338032e-06,1.1038343001026228e-05,9.679244482975917e-07,-4.4430202230876464e-07,3.1980877444416823e-06,2.2305523642077648e-06,-1.7249239052537375e-05,-3.0741144260644943e-06,-1.2353719751421232e-07,-6.140114263942084e-06,2.230552364215291e-06,3.071281572980186e-05,-1.754929333243295e-05,-3.640862618765401e-05,2.726934837287095e-06,3.171317960419477e-06,-1.7249239052539547e-05,-1.7549293332385113e-05,0.00012667290578239308,2.078633266063473e-05,-5.524738500565107e-07,1.1038343001026069e-05,-3.074114426077675e-06,-3.6408626187661464e-05,2.0786332660723567e-05,8.277924714617489e-05,0.0,0.0,0.0,0.0,0.0,0.0,0.0,0.0,0.0,0.0,0.0,0.0,0.0,0.0,0.0,0.0,0.0,0.0,0.0,0.0,0.0,0.0,0.0,0.0,0.0,0.0,0.0,0.0,0.0,0.0,0.0,0.0,0.0,0.0,0.0,0.0,0.0,0.0,0.0,0.0,0.0,0.0
361898023217,3,361898023217,camera_init,body,-0.02266835765503476,-0.006507126589114439,0.0285773860675035,-0.001153687048539641,0.002002021454657117,-0.00040480441194967325,0.9999972485210532,3.054095552380883e-06,-5.076703109319612e-08,1.0190546606907227e-06,-7.414332798272265e-08,2.783612910839701e-06,-4.817137570639009e-07,-5.076703109357589e-08,1.5920618427737145e-06,-3.4802662772230705e-07,-5.0065679714167195e-06,2.4502495139186155e-06,9.10957158217457e-06,1.0190546606904532e-06,-3.4802662772769344e-07,3.016275105310297e-06,1.6997793861635737e-06,-1.6059382227392176e-05,-2.299057312401493e-06,-7.414332797727932e-08,-5.006567971399012e-06,1.6997793861098311e-06,2.514435925535809e-05,-1.3507069162200697e-05,-2.8954287865336556e-05,2.7836129108408064e-06,2.450249513954603e-06,-1.6059382227385244e-05,-1.3507069162582079e-05,0.00011984734014821268,1.539393296474755e-05,-4.817137570632328e-07,9.109571582193787e-06,-2.2990573123935416e-06,-2.8954287865542365e-05,1.5393932964715296e-05,6.710313306794674e-05,0.0,0.0,0.0,0.0,0.0,0.0,0.0,0.0,0.0,0.0,0.0,0.0,0.0,0.0,0.0,0.0,0.0,0.0,0.0,0.0,0.0,0.0,0.0,0.0,0.0,0.0,0.0,0.0,0.0,0.0,0.0,0.0,0.0,0.0,0.0,0.0,0.0,0.0,0.0,0.0,0.0,0.0
361996496537,4,361996496537,camera_init,body,-0.024200643185663277,-0.01844574809761943,0.03620901303542019,-0.0005520360876291125,0.002842255689313071,0.0010492646316841551,0.9999952579299994,2.766002489618436e-06,-1.0417301325120613e-07,1.0269639187280454e-06,-7.350297971530017e-08,1.808368262158067e-06,-9.529914962082375e-07,-1.0417301325129499e-07,1.426506520389335e-06,-3.373548949605879e-07,-4.5265376936765905e-06,2.3081038944499176e-06,8.00196433825304e-06,1.0269639187266376e-06,-3.373548949660259e-07,2.6883395873916323e-06,1.5460175080164749e-06,-1.3717320868808885e-05,-2.172036733800466e-06,-7.350297971209661e-08,-4.526537693666465e-06,1.5460175079693978e-06,2.2903456485284198e-05,-1.2484950093599624e-05,-2.6267509894591587e-05,1.8083682621684693e-06,2.3081038944864556e-06,-1.3717320868801402e-05,-1.2484950093931756e-05,0.00010057162948399586,1.3526310348162722e-05,-9.529914962065244e-07,8.00196433826239e-06,-2.172036733785473e-06,-2.626750989469405e-05,1.352631034807565e-05,5.821807906377131e-05,0.0,0.0,0.0,0.0,0.0,0.0,0.0,0.0,0.0,0.0,0.0,0.0,0.0,0.0,0.0,0.0,0.0,0.0,0.0,0.0,0.0,0.0,0.0,0.0,0.0,0.0,0.0,0.0,0.0,0.0,0.0,0.0,0.0,0.0,0.0,0.0,0.0,0.0,0.0,0.0,0.0,0.0
362095147034,5,362095147034,camera_init,body,-0.026698330603430725,-0.03164654257879296,0.041667494370286294,-0.000950399997721921,0.0026556561822467257,0.001485947125228685,0.9999949180827006,2.9708891120746347e-06,-1.4966079599223806e-07,1.0804426978284366e-06,5.001761819665652e-08,1.944113659841254e-06,-8.072102545507793e-07,-1.4966079599273186e-07,1.231872092919976e-06,-3.1641937243053835e-07,-3.7042806140089566e-06,1.9155364182233925e-06,6.7576624638519004e-06,1.080442697827999e-06,-3.1641937243406576e-07,2.526438098327292e-06,1.502910592782112e-06,-1.2519171001865359e-05,-1.881337759741857e-06,5.001761820160989e-08,-3.704280614006833e-06,1.502910592751274e-06,1.8708342462381354e-05,-1.1083107670108356e-05,-2.1791918071207498e-05,1.944113659844703e-06,1.915536418249227e-06,-1.2519171001861285e-05,-1.1083107670334402e-05,9.255188206054875e-05,1.1554324824885737e-05,-8.07210254551633e-07,6.757662463855962e-06,-1.8813377597331544e-06,-2.179191807123999e-05,1.155432482482325e-05,5.0762730245627584e-05,0.0,0.0,0.0,0.0,0.0,0.0,0.0,0.0,0.0,0.0,0.0,0.0,0.0,0.0,0.0,0.0,0.0,0.0,0.0,0.0,0.0,0.0,0.0,0.0,0.0,0.0,0.0,0.0,0.0,0.0,0.0,0.0,0.0,0.0,0.0,0.0,0.0,0.0,0.0,0.0,0.0,0.0
362199159715,6,362199159715,camera_init,body,-0.02510185424637303,-0.025702660271206393,0.04320323897857368,0.00012896700531135136,0.002220190559664252,0.0013111235408995977,0.9999966675326726,2.9494575883913608e-06,-1.7608440694659873e-07,1.2340741927992655e-06,2.9683423591084783e-07,9.529593367459143e-07,-1.273587072534704e-06,-1.7608440694686525e-07,1.1863054080392974e-06,-3.3060565752928753e-07,-3.3571955825079403e-06,1.8288337353134588e-06,6.189401866133359e-06,1.2340741927988704e-06,-3.3060565753170544e-07,2.380500235431685e-06,1.5605509587976644e-06,-1.0841236524120626e-05,-2.014565816298667e-06,2.9683423591326097e-07,-3.3571955825091715e-06,1.560550958778623e-06,1.7042487962942202e-05,-1.0477150747373394e-05,-1.9286912024993302e-05,9.529593367484306e-07,1.8288337353311868e-06,-1.0841236524121412e-05,-1.0477150747513257e-05,7.75884700661073e-05,1.0536268026511662e-05,-1.2735870725354649e-06,6.189401866134206e-06,-2.014565816290488e-06,-1.928691202499509e-05,1.0536268026452202e-05,4.513078065788749e-05,0.0,0.0,0.0,0.0,0.0,0.0,0.0,0.0,0.0,0.0,0.0,0.0,0.0,0.0,0.0,0.0,0.0,0.0,0.0,0.0,0.0,0.0,0.0,0.0,0.0,0.0,0.0,0.0,0.0,0.0,0.0,0.0,0.0,0.0,0.0,0.0,0.0,0.0,0.0,0.0,0.0,0.0
362299315485,7,362299315485,camera_init,body,-0.021260988927404738,-0.02630231034069177,0.04107086591233863,-0.0019616985441493723,0.0022689335698121223,0.0006977474557326429,0.9999952584026417,3.1954488880290077e-06,-1.428444897770446e-07,1.426196934843867e-06,2.061268763076479e-07,7.465308901264046e-07,-8.249260952493352e-07,-1.4284448977725268e-07,1.0352229916468485e-06,-2.5203800572919424e-07,-3.0724040028524433e-06,1.393361276452088e-06,5.50844665052594e-06,1.4261969348436064e-06,-2.5203800573070307e-07,2.2402504024433064e-06,1.262485642293376e-06,-9.170677437610011e-06,-1.577290122079398e-06,2.0612687630916835e-07,-3.0724040028535732e-06,1.262485642283254e-06,1.6152855335479412e-05,-8.840560400259556e-06,-1.8013310584180317e-05,7.465308901274536e-07,1.3933612764631002e-06,-9.170677437609578e-06,-8.84056040033299e-06,6.492011064172161e-05,8.872719697392137e-06,-8.249260952501675e-07,5.508446650525234e-06,-1.5772901220722308e-06,-1.8013310584171993e-05,8.872719697339367e-06,4.2158638750249544e-05,0.0,0.0,0.0,0.0,0.0,0.0,0.0,0.0,0.0,0.0,0.0,0.0,0.0,0.0,0.0,0.0,0.0,0.0,0.0,0.0,0.0,0.0,0.0,0.0,0.0,0.0,0.0,0.0,0.0,0.0,0.0,0.0,0.0,0.0,0.0,0.0,0.0,0.0,0.0,0.0,0.0,0.0
362399172883,8,362399172883,camera_init,body,-0.024832795031271344,-0.02817842721613131,0.043829527366619214,0.0021621468814322833,0.0024424255128208724,0.003028921070730734,0.9999900926087346,3.4842233027824294e-06,-2.3544193869976723e-07,1.3636384975111869e-06,2.7568834501416163e-07,1.1989957429357436e-06,-1.4741533056798821e-06,-2.3544193869996996e-07,1.12760011070316e-06,-2.941402498857624e-07,-3.188907100253701e-06,1.4922743506503038e-06,5.697750356453102e-06,1.363638497511211e-06,-2.941402498869072e-07,2.1757744054650996e-06,1.3302407458253939e-06,-9.206048569049615e-06,-1.6835028149822458e-06,2.756883450155443e-07,-3.1889071002547363e-06,1.3302407458197573e-06,1.6809246501780455e-05,-9.53309369545985e-06,-1.790618383373379e-05,1.1989957429353341e-06,1.4922743506585804e-06,-9.206048569049105e-06,-9.533093695499955e-06,6.671454345601296e-05,8.471878809339235e-06,-1.4741533056812122e-06,5.697750356453511e-06,-1.6835028149757384e-06,-1.790618383372688e-05,8.471878809290388e-06,4.087432813728075e-05,0.0,0.0,0.0,0.0,0.0,0.0,0.0,0.0,0.0,0.0,0.0,0.0,0.0,0.0,0.0,0.0,0.0,0.0,0.0,0.0,0.0,0.0,0.0,0.0,0.0,0.0,0.0,0.0,0.0,0.0,0.0,0.0,0.0,0.0,0.0,0.0,0.0,0.0,0.0,0.0,0.0,0.0
362498574025,9,362498574025,camera_init,body,-0.023133879840946288,-0.028543590138795993,0.04485783340099942,-0.0016620503966580792,0.002775199420612116,0.0008347181791245265,0.9999944195355375,3.3673658620207364e-06,-8.807983622073395e-08,1.342106064063984e-06,8.89910978298518e-08,1.4995403573827729e-06,-7.310509953974351e-07,-8.807983622086026e-08,1.0627999304559178e-06,-2.1608715913801093e-07,-3.077658566072092e-06,1.2699092342692114e-06,5.490548416679839e-06,1.342106064063959e-06,-2.1608715913869862e-07,2.157855624467199e-06,1.2329142890757096e-06,-8.821614363832156e-06,-1.4560334659700252e-06,8.899109783017513e-08,-3.077658566071909e-06,1.2329142890737716e-06,1.6862114060298592e-05,-8.787845229827774e-06,-1.779700435434919e-05,1.4995403573826026e-06,1.269909234274206e-06,-8.821614363831363e-06,-8.787845229841378e-06,6.499315390965486e-05,8.144648712415176e-06,-7.310509953984859e-07,5.4905484166806414e-06,-1.4560334659651223e-06,-1.7797004354348878e-05,8.14464871237972e-06,4.0642939918791434e-05,0.0,0.0,0.0,0.0,0.0,0.0,0.0,0.0,0.0,0.0,0.0,0.0,0.0,0.0,0.0,0.0,0.0,0.0,0.0,0.0,0.0,0.0,0.0,0.0,0.0,0.0,0.0,0.0,0.0,0.0,0.0,0.0,0.0,0.0,0.0,0.0,0.0,0.0,0.0,0.0,0.0,0.0
362599526337,10,362599526337,camera_init,body,-0.02318510346092282,-0.026067451048917462,0.04469370224145765,-0.0015567146907998531,0.0023339342227057702,0.0007338292057160826,0.9999957954337171,3.164765423338595e-06,-7.355781912490674e-08,1.2896309065224901e-06,1.7020788243307623e-07,1.3526753526167293e-06,-8.282743213293893e-07,-7.355781912492315e-08,1.0668502204575547e-06,-2.1779778629911925e-07,-3.0490305037362433e-06,1.3292500114635186e-06,5.36912187233035e-06,1.2896309065224402e-06,-2.1779778629939864e-07,2.0319058301284637e-06,1.1856740562797952e-06,-8.345755957189395e-06,-1.4308975267022043e-06,1.7020788243292045e-07,-3.049030503735427e-06,1.1856740562793778e-06,1.6387362784209728e-05,-8.493012127645979e-06,-1.7107153839878032e-05,1.352675352616787e-06,1.3292500114653067e-06,-8.345755957189419e-06,-8.493012127646152e-06,6.194144410550054e-05,7.745787356349418e-06,-8.282743213298466e-07,5.369121872330743e-06,-1.430897526699578e-06,-1.710715383988295e-05,7.745787356330526e-06,3.9154294735365574e-05,0.0,0.0,0.0,0.0,0.0,0.0,0.0,0.0,0.0,0.0,0.0,0.0,0.0,0.0,0.0,0.0,0.0,0.0,0.0,0.0,0.0,0.0,0.0,0.0,0.0,0.0,0.0,0.0,0.0,0.0,0.0,0.0,0.0,0.0,0.0,0.0,0.0,0.0,0.0,0.0,0.0,0.0
362699462938,11,362699462938,camera_init,body,-0.0291706947973217,-0.020819719623900536,0.046623253735755904,-0.0011116958096432602,0.002497867388381043,0.0004790051612385476,0.9999961476650755,3.0540289024181936e-06,-7.670019282565122e-08,1.3073842369608513e-06,4.835658451638645e-08,8.361783353806672e-07,-1.153323447193481e-06,-7.670019282556041e-08,1.019462530732517e-06,-1.6327208902061447e-07,-2.8918442730890015e-06,1.0534091471303836e-06,5.040145435026975e-06,1.3073842369608034e-06,-1.632720890207249e-07,2.005638851138398e-06,8.81546645254497e-07,-8.00981943596884e-06,-1.2649986620253074e-06,4.835658451583217e-08,-2.891844273088503e-06,8.815466452545361e-07,1.559138795923701e-05,-7.001964263426089e-06,-1.6278819415068116e-05,8.361783353806153e-07,1.0534091471309083e-06,-8.009819435969082e-06,-7.001964263423385e-06,5.7241744663066944e-05,5.942607099693794e-06,-1.1533234471931903e-06,5.040145435027967e-06,-1.2649986620241629e-06,-1.627881941507574e-05,5.942607099687016e-06,3.768398324442544e-05,0.0,0.0,0.0,0.0,0.0,0.0,0.0,0.0,0.0,0.0,0.0,0.0,0.0,0.0,0.0,0.0,0.0,0.0,0.0,0.0,0.0,0.0,0.0,0.0,0.0,0.0,0.0,0.0,0.0,0.0,0.0,0.0,0.0,0.0,0.0,0.0,0.0,0.0,0.0,0.0,0.0,0.0
362799298641,12,362799298641,camera_init,body,-0.029664808693614014,-0.02332949518830812,0.04597964582072161,-0.0019908629909815294,0.0031399032040508217,0.00037302254914444214,0.9999930191389327,2.9721938136002444e-06,-5.8334517682264744e-08,1.3174857080153486e-06,3.4766540398448886e-07,7.715487398281212e-07,-1.111143640504329e-06,-5.833451768223625e-08,9.802965246368157e-07,-1.5354680945334578e-07,-2.753050742785124e-06,9.092675081376295e-07,4.884611600621889e-06,1.317485708015146e-06,-1.5354680945331812e-07,2.026140178131449e-06,1.016878361969899e-06,-8.146156028668033e-06,-1.2786994590079784e-06,3.476654039839594e-07,-2.7530507427836416e-06,1.0168783619698094e-06,1.4913622231490543e-05,-6.607433338758885e-06,-1.552615153250269e-05,7.715487398285338e-07,9.092675081376297e-07,-8.14615602866892e-06,-6.6074333387586705e-06,5.907848315216867e-05,5.393040327593279e-06,-1.1111436405041315e-06,4.884611600622107e-06,-1.2786994590080354e-06,-1.552615153251056e-05,5.3930403275925285e-06,3.655083884782422e-05,0.0,0.0,0.0,0.0,0.0,0.0,0.0,0.0,0.0,0.0,0.0,0.0,0.0,0.0,0.0,0.0,0.0,0.0,0.0,0.0,0.0,0.0,0.0,0.0,0.0,0.0,0.0,0.0,0.0,0.0,0.0,0.0,0.0,0.0,0.0,0.0,0.0,0.0,0.0,0.0,0.0,0.0
362899101897,13,362899101897,camera_init,body,-0.027054630931019917,-0.027096113110782093,0.0439675929177283,0.0010772530280254687,0.0022990721960979006,0.002394943743918493,0.9999939090001567,3.018958579424527e-06,-7.094438801670974e-08,1.3099226003040865e-06,1.0369231174790194e-07,8.573436675021575e-07,-7.643355562121408e-07,-7.094438801665886e-08,9.121439922081995e-07,-1.4331265234644975e-07,-2.655528066844638e-06,8.727423561612407e-07,4.598524950925145e-06,1.3099226003042472e-06,-1.4331265234651953e-07,1.961120606590494e-06,7.692570445138491e-07,-7.896352856829894e-06,-9.73244562469921e-07,1.0369231174759103e-07,-2.655528066843993e-06,7.692570445128681e-07,1.458905214024759e-05,-6.036053282358349e-06,-1.4952091461568513e-05,8.573436675025952e-07,8.727423561613807e-07,-7.896352856829822e-06,-6.036053282362757e-06,5.766711987633893e-05,4.946742500764522e-06,-7.643355562119492e-07,4.598524950925499e-06,-9.732445624697883e-07,-1.4952091461574945e-05,4.946742500765449e-06,3.446387170636898e-05,0.0,0.0,0.0,0.0,0.0,0.0,0.0,0.0,0.0,0.0,0.0,0.0,0.0,0.0,0.0,0.0,0.0,0.0,0.0,0.0,0.0,0.0,0.0,0.0,0.0,0.0,0.0,0.0,0.0,0.0,0.0,0.0,0.0,0.0,0.0,0.0,0.0,0.0,0.0,0.0,0.0,0.0
362999759140,14,362999759140,camera_init,body,-0.021385743462358806,-0.033084361899863204,0.036328237111857696,-0.0014317138019900538,0.0020383594454359724,0.001175460427314019,0.9999962067823777,3.2997358677005383e-06,-7.673428515298019e-08,1.4767086473172313e-06,-9.227399352644246e-08,9.954060730347298e-07,-6.435834042415546e-07,-7.673428515293757e-08,9.704037324108851e-07,-1.6916954232824375e-07,-2.884777610293539e-06,1.0593553338203567e-06,4.772676274973553e-06,1.476708647317142e-06,-1.6916954232834637e-07,2.089424707615837e-06,9.498944525555531e-07,-7.82581497713076e-06,-1.1302077009372523e-06,-9.22739935265968e-08,-2.8847776102926327e-06,9.498944525538604e-07,1.602355660920149e-05,-7.966231348330419e-06,-1.6488625720364017e-05,9.954060730344212e-07,1.0593553338209374e-06,-7.825814977129809e-06,-7.966231348339889e-06,5.698396433037247e-05,6.708083315937414e-06,-6.435834042412231e-07,4.772676274973733e-06,-1.1302077009372527e-06,-1.6488625720369638e-05,6.708083315937546e-06,3.647957287166253e-05,0.0,0.0,0.0,0.0,0.0,0.0,0.0,0.0,0.0,0.0,0.0,0.0,0.0,0.0,0.0,0.0,0.0,0.0,0.0,0.0,0.0,0.0,0.0,0.0,0.0,0.0,0.0,0.0,0.0,0.0,0.0,0.0,0.0,0.0,0.0,0.0,0.0,0.0,0.0,0.0,0.0,0.0
363099050371,15,363099050371,camera_init,body,-0.018903891844574704,-0.03809398897353496,0.0344861590054333,-0.0005470145695464903,0.0018824412847877954,0.0017749212101121155,0.9999965034161705,3.0687304882746924e-06,-1.0853198592751488e-07,1.3026460080988562e-06,1.7083070671095053e-07,1.1058170932360998e-06,-9.204320710553429e-07,-1.0853198592753019e-07,9.696524131865212e-07,-1.6518002419036767e-07,-2.7629148165031624e-06,9.439450558472454e-07,4.845869777284664e-06,1.3026460080987573e-06,-1.6518002419048345e-07,1.961263907125391e-06,9.515261084964436e-07,-7.76139036659649e-06,-1.1990088733823627e-06,1.708307067109783e-07,-2.762914816502462e-06,9.515261084945022e-07,1.5174487556803086e-05,-7.145564766183262e-06,-1.58594642811292e-05,1.1058170932356616e-06,9.439450558480822e-07,-7.761390366596447e-06,-7.145564766196045e-06,5.738931490810408e-05,6.452231777751192e-06,-9.204320710552511e-07,4.845869777283961e-06,-1.1990088733819456e-06,-1.5859464281132784e-05,6.452231777748644e-06,3.598022625009918e-05,0.0,0.0,0.0,0.0,0.0,0.0,0.0,0.0,0.0,0.0,0.0,0.0,0.0,0.0,0.0,0.0,0.0,0.0,0.0,0.0,0.0,0.0,0.0,0.0,0.0,0.0,0.0,0.0,0.0,0.0,0.0,0.0,0.0,0.0,0.0,0.0,0.0,0.0,0.0,0.0,0.0,0.0
363197335873,16,363197335873,camera_init,body,-0.01516727508614109,-0.04115126194556346,0.02866813478260252,-0.0009634885545693477,0.0013108677228100508,0.001726925860727865,0.9999971855173838,3.0773538173998487e-06,-9.320761547425288e-08,1.377185225100035e-06,3.005809388038279e-08,8.606660085131743e-07,-6.487580357345471e-07,-9.320761547427434e-08,9.617372148997084e-07,-1.765502662355135e-07,-2.7051323672262636e-06,1.0137922560913171e-06,4.781297937917885e-06,1.3771852251001178e-06,-1.7655026623576684e-07,2.03040891037286e-06,8.685566855995474e-07,-7.843872078835242e-06,-1.1112719923782897e-06,3.0058093880456454e-08,-2.7051323672257795e-06,8.685566855973128e-07,1.4900153646042447e-05,-6.865156822253695e-06,-1.5644329502166588e-05,8.606660085126688e-07,1.0137922560929157e-06,-7.8438720788343e-06,-6.865156822268485e-06,5.686279945807923e-05,6.213594669739115e-06,-6.487580357345466e-07,4.781297937917153e-06,-1.1112719923774234e-06,-1.564432950216857e-05,6.213594669733835e-06,3.569648240031454e-05,0.0,0.0,0.0,0.0,0.0,0.0,0.0,0.0,0.0,0.0,0.0,0.0,0.0,0.0,0.0,0.0,0.0,0.0,0.0,0.0,0.0,0.0,0.0,0.0,0.0,0.0,0.0,0.0,0.0,0.0,0.0,0.0,0.0,0.0,0.0,0.0,0.0,0.0,0.0,0.0,0.0,0.0
363296148775,17,363296148775,camera_init,body,-0.017245988981985812,-0.03818122249001895,0.031081403217048855,-0.0005429216244121473,0.0016382931025210126,0.0017918916711022993,0.9999969051732405,2.972011248487403e-06,-9.640945838077324e-08,1.3274942597717402e-06,1.0577843918836982e-07,7.458650697439727e-07,-9.630862805364227e-07,-9.640945838076873e-08,9.227860144566221e-07,-1.76717947662153e-07,-2.6344812121239713e-06,1.0155723002460063e-06,4.601884986251365e-06,1.3274942597716028e-06,-1.7671794766243498e-07,2.0487722688240626e-06,8.557785244502154e-07,-7.97733816256073e-06,-1.254800050544367e-06,1.0577843918838419e-07,-2.6344812121238967e-06,8.557785244480611e-07,1.4145251246433752e-05,-6.2332648694729074e-06,-1.487252644416544e-05,7.458650697443537e-07,1.015572300247843e-06,-7.977338162561258e-06,-6.2332648694881125e-06,5.652809828789228e-05,6.186710847514342e-06,-9.630862805364807e-07,4.601884986251341e-06,-1.2548000505432084e-06,-1.487252644416632e-05,6.186710847507079e-06,3.4345282399122435e-05,0.0,0.0,0.0,0.0,0.0,0.0,0.0,0.0,0.0,0.0,0.0,0.0,0.0,0.0,0.0,0.0,0.0,0.0,0.0,0.0,0.0,0.0,0.0,0.0,0.0,0.0,0.0,0.0,0.0,0.0,0.0,0.0,0.0,0.0,0.0,0.0,0.0,0.0,0.0,0.0,0.0,0.0
363394834360,18,363394834360,camera_init,body,-0.017019576254848304,-0.03958888215742423,0.029124826043293688,-0.0014901501183046384,0.0014315053057499369,0.001498736100186353,0.9999967420123358,3.1390857016433984e-06,-8.271611577818171e-08,1.3527394062538837e-06,-2.2689213638876793e-07,8.664641302308752e-07,-6.150178826740871e-07,-8.271611577819011e-08,9.879506616752176e-07,-1.846569802421529e-07,-2.7193289291582937e-06,1.152764409565609e-06,4.810512265494985e-06,1.352739406253704e-06,-1.8465698024251217e-07,1.956002686528842e-06,6.433752325258352e-07,-7.586209374637893e-06,-1.1433720752619496e-06,-2.2689213638871862e-07,-2.719328929158087e-06,6.43375232523612e-07,1.4886659172144998e-05,-6.4636202416749306e-06,-1.551456720485844e-05,8.664641302308131e-07,1.1527644095679773e-06,-7.586209374636868e-06,-6.463620241690926e-06,5.546683168515796e-05,7.064058696282681e-06,-6.150178826741952e-07,4.810512265496006e-06,-1.1433720752605134e-06,-1.551456720485867e-05,7.064058696273508e-06,3.562900128471763e-05,0.0,0.0,0.0,0.0,0.0,0.0,0.0,0.0,0.0,0.0,0.0,0.0,0.0,0.0,0.0,0.0,0.0,0.0,0.0,0.0,0.0,0.0,0.0,0.0,0.0,0.0,0.0,0.0,0.0,0.0,0.0,0.0,0.0,0.0,0.0,0.0,0.0,0.0,0.0,0.0,0.0,0.0
363499292617,19,363499292617,camera_init,body,-0.01967948062995657,-0.03924011858063031,0.027540855554883788,-0.0010665833729331018,0.0014237688471310053,0.0016159683895080965,0.9999971119600002,3.058807685622367e-06,-1.094590093357259e-07,1.3514735592409976e-06,-1.861709728895258e-08,7.187576451536057e-07,-7.320171119438792e-07,-1.0945900933575837e-07,9.549883372634752e-07,-1.8339133976271504e-07,-2.7727712239565465e-06,1.0897324772761856e-06,4.751258415191994e-06,1.3514735592412418e-06,-1.8339133976303263e-07,1.9136557619018384e-06,7.808828454366879e-07,-7.316401491156297e-06,-1.1727894642131856e-06,-1.8617097288811813e-08,-2.772771223956364e-06,7.808828454345651e-07,1.5074111061080547e-05,-6.67082212795058e-06,-1.5657644835027598e-05,7.187576451530868e-07,1.0897324772784827e-06,-7.316401491156101e-06,-6.6708221279655295e-06,5.3072779245933076e-05,6.948717497005244e-06,-7.320171119440013e-07,4.751258415191981e-06,-1.172789464211727e-06,-1.5657644835027083e-05,6.948717496995283e-06,3.5532291822903256e-05,0.0,0.0,0.0,0.0,0.0,0.0,0.0,0.0,0.0,0.0,0.0,0.0,0.0,0.0,0.0,0.0,0.0,0.0,0.0,0.0,0.0,0.0,0.0,0.0,0.0,0.0,0.0,0.0,0.0,0.0,0.0,0.0,0.0,0.0,0.0,0.0,0.0,0.0,0.0,0.0,0.0,0.0
363599175915,20,363599175915,camera_init,body,-0.018471493255256235,-0.04200358121107684,0.023447156772866823,-0.0007947234517390088,0.0009388716385817696,0.00189178280071661,0.9999974540430161,3.3968363058592803e-06,-1.6332242851388542e-07,1.3607674907621812e-06,1.2212803322309184e-08,1.3926705721775152e-06,-1.0841226354399993e-06,-1.633224285139514e-07,9.825122740916818e-07,-1.94833317917149e-07,-2.770371386624182e-06,1.0453695638859761e-06,4.879013480708921e-06,1.360767490762019e-06,-1.9483331791745587e-07,1.9777281053599445e-06,8.846673943203729e-07,-7.5250255051248065e-06,-1.2433520698628048e-06,1.2212803322707673e-08,-2.7703713866243848e-06,8.846673943182204e-07,1.5275219869900107e-05,-7.137373208864896e-06,-1.571538148819854e-05,1.3926705721770477e-06,1.0453695638882568e-06,-7.525025505124473e-06,-7.137373208879806e-06,5.560872853085138e-05,6.532640746147976e-06,-1.0841226354402021e-06,4.8790134807092656e-06,-1.243352069861416e-06,-1.5715381488197438e-05,6.532640746137037e-06,3.5931041101715935e-05,0.0,0.0,0.0,0.0,0.0,0.0,0.0,0.0,0.0,0.0,0.0,0.0,0.0,0.0,0.0,0.0,0.0,0.0,0.0,0.0,0.0,0.0,0.0,0.0,0.0,0.0,0.0,0.0,0.0,0.0,0.0,0.0,0.0,0.0,0.0,0.0,0.0,0.0,0.0,0.0,0.0,0.0
363699674953,21,363699674953,camera_init,body,-0.01817145280508291,-0.04227187027396258,0.026472582682764693,-0.0017877613862667251,0.0012711806823182503,0.0014445356527224384,0.999996550656873,2.8507978796469294e-06,-1.3571517168483215e-07,1.2339765761580613e-06,2.2003144704139545e-07,8.12305466820996e-07,-1.1069410424588462e-06,-1.357151716848847e-07,9.86488446094525e-07,-2.0913179078918595e-07,-2.7562060491910955e-06,1.0795562988517101e-06,4.873284501154767e-06,1.2339765761581452e-06,-2.0913179078953283e-07,1.920902801527711e-06,9.889930710982231e-07,-7.53917449013416e-06,-1.3597392866551883e-06,2.200314470417994e-07,-2.756206049191256e-06,9.889930710960082e-07,1.4825422581050806e-05,-6.889682230211807e-06,-1.5421564018453727e-05,8.123054668197209e-07,1.079556298853909e-06,-7.539174490132259e-06,-6.8896822302246395e-06,5.366469069473712e-05,6.369795547054378e-06,-1.1069410424590643e-06,4.873284501154699e-06,-1.3597392866536023e-06,-1.542156401845256e-05,6.369795547044319e-06,3.541019102943159e-05,0.0,0.0,0.0,0.0,0.0,0.0,0.0,0.0,0.0,0.0,0.0,0.0,0.0,0.0,0.0,0.0,0.0,0.0,0.0,0.0,0.0,0.0,0.0,0.0,0.0,0.0,0.0,0.0,0.0,0.0,0.0,0.0,0.0,0.0,0.0,0.0,0.0,0.0,0.0,0.0,0.0,0.0
363798925096,22,363798925096,camera_init,body,-0.014276831254741123,-0.041812393774066335,0.023253100181812432,-0.0009160652733200287,0.0006935045257544949,0.0017836459030974138,0.9999977492390562,2.915602266953406e-06,-6.598840849173203e-08,1.2822551942166165e-06,1.4613760170156212e-07,7.648022347832323e-07,-9.45733114646505e-07,-6.598840849176624e-08,9.468125366062907e-07,-1.7835919883382185e-07,-2.613504382104077e-06,1.0896619697638693e-06,4.646012181505268e-06,1.2822551942168257e-06,-1.7835919883406322e-07,1.8612874791470562e-06,9.773123493072681e-07,-7.174054681519756e-06,-1.2677008521911381e-06,1.4613760170182465e-07,-2.6135043821036125e-06,9.773123493055516e-07,1.4114747926814304e-05,-7.057682305574099e-06,-1.4642924910747852e-05,7.648022347827347e-07,1.0896619697653423e-06,-7.174054681519688e-06,-7.0576823055849346e-06,5.2278041814929086e-05,6.243062676658068e-06,-9.45733114646705e-07,4.646012181505434e-06,-1.267700852189942e-06,-1.4642924910746597e-05,6.243062676649306e-06,3.420124562664215e-05,0.0,0.0,0.0,0.0,0.0,0.0,0.0,0.0,0.0,0.0,0.0,0.0,0.0,0.0,0.0,0.0,0.0,0.0,0.0,0.0,0.0,0.0,0.0,0.0,0.0,0.0,0.0,0.0,0.0,0.0,0.0,0.0,0.0,0.0,0.0,0.0,0.0,0.0,0.0,0.0,0.0,0.0
363899462880,23,363899462880,camera_init,body,-0.01703758361737607,-0.041740784071810505,0.027468713606847283,-0.000751936964359472,0.0012140875033150676,0.002050323611899745,0.9999968783728376,3.047930735976076e-06,-7.849300650744833e-08,1.3277692189024602e-06,2.367302934820756e-07,6.657820072029831e-07,-7.176233307603201e-07,-7.849300650745656e-08,9.688893452453168e-07,-1.531890166009786e-07,-2.5306049574782162e-06,8.583240064382571e-07,4.634756432749146e-06,1.3277692189023613e-06,-1.5318901660117053e-07,1.837395010294205e-06,8.600868563318592e-07,-6.9215165049873265e-06,-1.0520438120733555e-06,2.367302934821477e-07,-2.530604957478099e-06,8.600868563307132e-07,1.3379371961664247e-05,-5.750276490443546e-06,-1.4212640241174888e-05,6.657820072025849e-07,8.583240064397174e-07,-6.921516504987833e-06,-5.750276490452747e-06,5.01019719003686e-05,5.303638276402872e-06,-7.17623330760436e-07,4.63475643274889e-06,-1.0520438120723776e-06,-1.421264024117376e-05,5.303638276395351e-06,3.408454022364157e-05,0.0,0.0,0.0,0.0,0.0,0.0,0.0,0.0,0.0,0.0,0.0,0.0,0.0,0.0,0.0,0.0,0.0,0.0,0.0,0.0,0.0,0.0,0.0,0.0,0.0,0.0,0.0,0.0,0.0,0.0,0.0,0.0,0.0,0.0,0.0,0.0,0.0,0.0,0.0,0.0,0.0,0.0
363999331543,24,363999331543,camera_init,body,-0.016403723937666124,-0.04026455664990494,0.02834745909422635,0.00039559898786420856,0.0014410934104466548,0.002554333547497173,0.9999956210560867,2.7481372755304355e-06,-3.7114688304759237e-08,1.299885403525242e-06,2.9800073642022254e-07,1.8490615020658664e-07,-8.609813343275631e-07,-3.711468830476142e-08,9.166361227990242e-07,-1.3691450948764118e-07,-2.4989480220958357e-06,8.496881256762589e-07,4.428018484737236e-06,1.2998854035253018e-06,-1.3691450948785966e-07,1.8980525493119015e-06,9.875986578443588e-07,-7.398636448847173e-06,-1.1616711668352124e-06,2.980007364203896e-07,-2.498948022096591e-06,9.875986578429146e-07,1.4019232992452872e-05,-6.692025728688154e-06,-1.4068702421713112e-05,1.8490615020569834e-07,8.496881256778412e-07,-7.398636448846212e-06,-6.69202572869748e-06,5.2421061975091364e-05,5.570232037844313e-06,-8.609813343275518e-07,4.428018484737601e-06,-1.1616711668343707e-06,-1.4068702421711936e-05,5.570232037836925e-06,3.296371000093313e-05,0.0,0.0,0.0,0.0,0.0,0.0,0.0,0.0,0.0,0.0,0.0,0.0,0.0,0.0,0.0,0.0,0.0,0.0,0.0,0.0,0.0,0.0,0.0,0.0,0.0,0.0,0.0,0.0,0.0,0.0,0.0,0.0,0.0,0.0,0.0,0.0,0.0,0.0,0.0,0.0,0.0,0.0
364098481186,25,364098481186,camera_init,body,-0.017702410883505354,-0.03882980039952117,0.029693341030815834,0.0005082040223468258,0.0012158341000819187,0.0023948148372565487,0.999996264162024,3.1860038673763827e-06,-1.0930756368305832e-07,1.4325815269507495e-06,5.962840686344919e-08,8.148874780556886e-07,-7.357955315552523e-07,-1.0930756368308053e-07,8.620213905836195e-07,-1.227400417416675e-07,-2.4306280379891596e-06,6.966260877852192e-07,4.1915360700480126e-06,1.4325815269509238e-06,-1.2274004174182115e-07,1.8997443716345182e-06,7.830808282313509e-07,-6.854158789180913e-06,-9.035526901680603e-07,5.962840686359027e-08,-2.430628037988978e-06,7.830808282302082e-07,1.3503137294607352e-05,-6.275500392770611e-06,-1.3777711375802856e-05,8.148874780556601e-07,6.966260877862667e-07,-6.854158789181447e-06,-6.275500392778281e-06,4.993347388446331e-05,4.805172270720225e-06,-7.357955315553675e-07,4.191536070047705e-06,-9.035526901671583e-07,-1.3777711375801677e-05,4.805172270713972e-06,3.236708361144872e-05,0.0,0.0,0.0,0.0,0.0,0.0,0.0,0.0,0.0,0.0,0.0,0.0,0.0,0.0,0.0,0.0,0.0,0.0,0.0,0.0,0.0,0.0,0.0,0.0,0.0,0.0,0.0,0.0,0.0,0.0,0.0,0.0,0.0,0.0,0.0,0.0,0.0,0.0,0.0,0.0,0.0,0.0
364199795785,26,364199795785,camera_init,body,-0.01925480623405544,-0.03367585187990055,0.03447650966126537,-3.912078106174387e-05,0.0014911621411584327,0.0015142114499183089,0.9999977410318058,3.072344097317182e-06,-3.830502976512274e-08,1.372925865971741e-06,-7.656380820517733e-08,9.077769339016161e-07,-6.200118761464505e-07,-3.830502976515122e-08,8.962939117271226e-07,-1.2286432038741082e-07,-2.52399945121416e-06,8.602733651406496e-07,4.294699517424568e-06,1.372925865971808e-06,-1.2286432038753642e-07,1.8582834358714408e-06,7.475874651165689e-07,-6.650155574264179e-06,-9.608848336793631e-07,-7.656380820501428e-08,-2.523999451213705e-06,7.475874651155334e-07,1.3857955227457195e-05,-6.4226666541646e-06,-1.3966756626021378e-05,9.077769339009504e-07,8.602733651413814e-07,-6.650155574263644e-06,-6.42266665417154e-06,4.885088282135578e-05,5.411462967101674e-06,-6.200118761465857e-07,4.294699517423894e-06,-9.608848336785879e-07,-1.396675662602037e-05,5.41146296709615e-06,3.224695334506965e-05,0.0,0.0,0.0,0.0,0.0,0.0,0.0,0.0,0.0,0.0,0.0,0.0,0.0,0.0,0.0,0.0,0.0,0.0,0.0,0.0,0.0,0.0,0.0,0.0,0.0,0.0,0.0,0.0,0.0,0.0,0.0,0.0,0.0,0.0,0.0,0.0,0.0,0.0,0.0,0.0,0.0,0.0
364299636356,27,364299636356,camera_init,body,-0.018356822657024045,-0.030795879029996337,0.03364724113576031,-0.00021334334237845128,0.0015936322689804343,0.0013849398970685537,0.9999977483786094,2.847410268477267e-06,-1.2706740556162556e-07,1.2562929256123788e-06,1.876701923250904e-07,8.162999469848295e-07,-1.2830860478840916e-06,-1.2706740556166008e-07,8.734935787970254e-07,-1.6823149148606867e-07,-2.4970442468232764e-06,8.736903219452721e-07,4.2303890343310425e-06,1.2562929256125067e-06,-1.6823149148617153e-07,1.7702636704192842e-06,7.593279707593822e-07,-6.638743835458128e-06,-1.260842379627632e-06,1.8767019232518055e-07,-2.497044246822539e-06,7.593279707586553e-07,1.3742801641025694e-05,-5.453803711318439e-06,-1.3828039887134879e-05,8.162999469850406e-07,8.736903219461635e-07,-6.638743835459545e-06,-5.4538037113247395e-06,4.9195057299866606e-05,5.249693535636654e-06,-1.283086047884237e-06,4.230389034330563e-06,-1.260842379626911e-06,-1.382803988713408e-05,5.249693535631795e-06,3.18236569583367e-05,0.0,0.0,0.0,0.0,0.0,0.0,0.0,0.0,0.0,0.0,0.0,0.0,0.0,0.0,0.0,0.0,0.0,0.0,0.0,0.0,0.0,0.0,0.0,0.0,0.0,0.0,0.0,0.0,0.0,0.0,0.0,0.0,0.0,0.0,0.0,0.0,0.0,0.0,0.0,0.0,0.0,0.0
364398682479,28,364398682479,camera_init,body,-0.0208599868263405,-0.033863072022262505,0.03265245516633991,-0.0013579116329391883,0.0017306718950640748,0.0010512037203542933,0.9999970279063457,2.938314734239157e-06,-9.991052950261552e-08,1.3375376159812865e-06,1.7316076405346563e-08,6.547081017772783e-07,-6.545811545254449e-07,-9.99105295026193e-08,8.85661884514498e-07,-1.5495153123372438e-07,-2.4554703585312865e-06,8.473606443533854e-07,4.2740601955369655e-06,1.3375376159812668e-06,-1.5495153123387116e-07,1.8906846648008712e-06,6.325412766172627e-07,-6.956384716233938e-06,-9.716558135248145e-07,1.7316076405367342e-08,-2.455470358531677e-06,6.325412766165191e-07,1.3470577355265984e-05,-5.039048743593493e-06,-1.374406475200009e-05,6.547081017769993e-07,8.473606443544195e-07,-6.956384716234109e-06,-5.039048743599098e-06,4.9943769262709806e-05,5.181107728435007e-06,-6.545811545255028e-07,4.274060195537721e-06,-9.716558135242648e-07,-1.3744064751999443e-05,5.181107728430787e-06,3.1992981637499234e-05,0.0,0.0,0.0,0.0,0.0,0.0,0.0,0.0,0.0,0.0,0.0,0.0,0.0,0.0,0.0,0.0,0.0,0.0,0.0,0.0,0.0,0.0,0.0,0.0,0.0,0.0,0.0,0.0,0.0,0.0,0.0,0.0,0.0,0.0,0.0,0.0,0.0,0.0,0.0,0.0,0.0,0.0
364497317978,29,364497317978,camera_init,body,-0.020006101925395637,-0.03778287146753289,0.03403372338234972,-0.0006512782021930609,0.0016382346902699546,0.0016970863241141437,0.999997005956423,2.8410197802795486e-06,-1.0246744342987823e-07,1.2300953115445307e-06,7.140712047201897e-08,6.791602105755997e-07,-1.0647737233883718e-06,-1.0246744342987403e-07,8.652899391857442e-07,-1.2687118155068547e-07,-2.3594922820277257e-06,7.596233008279199e-07,4.166108384821726e-06,1.2300953115445718e-06,-1.2687118155081737e-07,1.8666119358341231e-06,6.530979364779095e-07,-7.110464595011028e-06,-1.0456888319213163e-06,7.140712047210707e-08,-2.35949228202879e-06,6.530979364772132e-07,1.3173529829863059e-05,-5.186929450109739e-06,-1.3156556552588631e-05,6.791602105753204e-07,7.596233008288278e-07,-7.110464595010945e-06,-5.186929450114699e-06,5.036988317344292e-05,4.890721208137479e-06,-1.0647737233884925e-06,4.166108384822436e-06,-1.0456888319207615e-06,-1.3156556552588022e-05,4.8907212081338535e-06,3.1062453449019796e-05,0.0,0.0,0.0,0.0,0.0,0.0,0.0,0.0,0.0,0.0,0.0,0.0,0.0,0.0,0.0,0.0,0.0,0.0,0.0,0.0,0.0,0.0,0.0,0.0,0.0,0.0,0.0,0.0,0.0,0.0,0.0,0.0,0.0,0.0,0.0,0.0,0.0,0.0,0.0,0.0,0.0,0.0
364595834831,30,364595834831,camera_init,body,-0.018717921814290307,-0.03986125784885724,0.03318559360389331,-0.001636556871684099,0.0015446058404784294,0.0011248789284520986,0.9999968352558914,3.0409992958705236e-06,-1.6511880945223376e-07,1.3549130063831792e-06,1.773182372166125e-07,7.280360351167775e-07,-1.0891797618461858e-06,-1.6511880945227288e-07,9.120301368074858e-07,-1.8437585049946136e-07,-2.4609587152279002e-06,8.476966259620525e-07,4.252984774244549e-06,1.3549130063833482e-06,-1.843758504995535e-07,1.8885442554427356e-06,7.259302450060793e-07,-6.935329558011682e-06,-1.143665676690354e-06,1.7731823721673248e-07,-2.4609587152276673e-06,7.259302450054148e-07,1.3634551503959348e-05,-5.357076097272312e-06,-1.3443279452109832e-05,7.280360351161725e-07,8.476966259626543e-07,-6.935329558011963e-06,-5.357076097276876e-06,5.005802594578685e-05,4.984631979985569e-06,-1.0891797618463357e-06,4.2529847742443815e-06,-1.1436656766897994e-06,-1.3443279452109195e-05,4.984631979982315e-06,3.159023729680577e-05,0.0,0.0,0.0,0.0,0.0,0.0,0.0,0.0,0.0,0.0,0.0,0.0,0.0,0.0,0.0,0.0,0.0,0.0,0.0,0.0,0.0,0.0,0.0,0.0,0.0,0.0,0.0,0.0,0.0,0.0,0.0,0.0,0.0,0.0,0.0,0.0,0.0,0.0,0.0,0.0,0.0,0.0
364694475191,31,364694475191,camera_init,body,-0.019733554955653647,-0.04189436165420471,0.02920293538937946,-0.0013254229792764288,0.0016204868083830994,0.0014767550075088446,0.999996718230153,3.0446918965047165e-06,-1.0789778707852169e-07,1.2677565438704856e-06,-9.71125726532278e-08,1.155864720388921e-06,-5.807387207129269e-07,-1.0789778707853843e-07,8.431231637268422e-07,-1.4140347544299682e-07,-2.3529939779314955e-06,8.134433321505098e-07,4.089654900826189e-06,1.2677565438704834e-06,-1.4140347544306815e-07,1.777588276105082e-06,6.190988002181133e-07,-6.486788058960152e-06,-8.561637453131305e-07,-9.711257265315022e-08,-2.352993977932072e-06,6.190988002176272e-07,1.315286884116209e-05,-5.318734894970504e-06,-1.3242820709971605e-05,1.155864720388828e-06,8.134433321511835e-07,-6.486788058960578e-06,-5.318734894974202e-06,4.790706898356773e-05,5.176681941944346e-06,-5.807387207129633e-07,4.089654900826127e-06,-8.561637453129186e-07,-1.3242820709971074e-05,5.176681941941696e-06,3.137045404304684e-05,0.0,0.0,0.0,0.0,0.0,0.0,0.0,0.0,0.0,0.0,0.0,0.0,0.0,0.0,0.0,0.0,0.0,0.0,0.0,0.0,0.0,0.0,0.0,0.0,0.0,0.0,0.0,0.0,0.0,0.0,0.0,0.0,0.0,0.0,0.0,0.0,0.0,0.0,0.0,0.0,0.0,0.0
364799632661,32,364799632661,camera_init,body,-0.019900774327561762,-0.039774992048596365,0.02762568991579496,-0.0013893280331480219,0.00129814413690134,0.0014789154638109488,0.9999970986950237,3.3407358530071748e-06,-1.5202094013789615e-07,1.3640265426131146e-06,3.437115869416084e-08,1.0914175186696095e-06,-9.700168965887179e-07,-1.5202094013789241e-07,9.118851985308885e-07,-1.638835499784497e-07,-2.421613059312882e-06,8.412669714906533e-07,4.28004192351108e-06,1.3640265426130663e-06,-1.6388354997854137e-07,1.8249565591292436e-06,6.647405618996555e-07,-6.572006139341709e-06,-1.0383775731957518e-06,3.437115869422024e-08,-2.421613059313231e-06,6.647405618991899e-07,1.3270137395883236e-05,-5.411403321700688e-06,-1.333472949286597e-05,1.0914175186696946e-06,8.412669714913331e-07,-6.572006139342258e-06,-5.41140332170412e-06,4.820059757296887e-05,5.14967045853017e-06,-9.700168965887865e-07,4.280041923511096e-06,-1.0383775731955102e-06,-1.3334729492865482e-05,5.149670458527789e-06,3.218228910975739e-05,0.0,0.0,0.0,0.0,0.0,0.0,0.0,0.0,0.0,0.0,0.0,0.0,0.0,0.0,0.0,0.0,0.0,0.0,0.0,0.0,0.0,0.0,0.0,0.0,0.0,0.0,0.0,0.0,0.0,0.0,0.0,0.0,0.0,0.0,0.0,0.0,0.0,0.0,0.0,0.0,0.0,0.0
364899467400,33,364899467400,camera_init,body,-0.019928261167805834,-0.04155707528071972,0.029326689492236678,-0.0008707466603740557,0.0010969759541442034,0.0020341087168830032,0.9999969504182179,2.8526057245321023e-06,-7.113679829062909e-08,1.176028813604031e-06,-1.8065460525719103e-08,1.0847890846802094e-06,-9.21662387774401e-07,-7.113679829063171e-08,9.522332490977711e-07,-1.4469688103344778e-07,-2.6030630567184804e-06,9.140788461091009e-07,4.5369741513699915e-06,1.1760288136040049e-06,-1.4469688103349457e-07,1.7336843657738408e-06,6.561644000472711e-07,-6.48954423128115e-06,-1.1091529893021726e-06,-1.806546052562626e-08,-2.603063056718779e-06,6.561644000467951e-07,1.3912590064184596e-05,-5.474320583203176e-06,-1.4153419594320543e-05,1.0847890846802028e-06,9.140788461094563e-07,-6.48954423128102e-06,-5.474320583206336e-06,4.730135368444824e-05,5.528981517724228e-06,-9.21662387774426e-07,4.536974151370122e-06,-1.1091529893019917e-06,-1.415341959432012e-05,5.528981517722007e-06,3.390763126103618e-05,0.0,0.0,0.0,0.0,0.0,0.0,0.0,0.0,0.0,0.0,0.0,0.0,0.0,0.0,0.0,0.0,0.0,0.0,0.0,0.0,0.0,0.0,0.0,0.0,0.0,0.0,0.0,0.0,0.0,0.0,0.0,0.0,0.0,0.0,0.0,0.0,0.0,0.0,0.0,0.0,0.0,0.0
364999317700,34,364999317700,camera_init,body,-0.019176884917708775,-0.04405499555273852,0.0304445878523748,-0.0023119244757992497,0.0014670323187971487,0.0009613242208322203,0.9999957893297029,3.1609145947770188e-06,-6.686544834909431e-08,1.4204656473283851e-06,1.5579964015226325e-07,8.071715010589574e-07,-4.835391024833989e-07,-6.686544834910061e-08,9.31800164713712e-07,-1.6048290284089874e-07,-2.553241525856359e-06,8.760336760720297e-07,4.459740085928229e-06,1.4204656473283934e-06,-1.6048290284090168e-07,1.8598390654401853e-06,7.986766899076951e-07,-6.566970238937565e-06,-1.0017977933016865e-06,1.557996401523875e-07,-2.5532415258558672e-06,7.986766899071574e-07,1.4307141932029433e-05,-5.8835187671385785e-06,-1.4225307393668042e-05,8.071715010583319e-07,8.760336760722735e-07,-6.566970238936749e-06,-5.883518767141608e-06,4.820584016424853e-05,5.685824585883742e-06,-4.835391024833916e-07,4.459740085927176e-06,-1.001797793301586e-06,-1.4225307393667695e-05,5.685824585881729e-06,3.380128524049663e-05,0.0,0.0,0.0,0.0,0.0,0.0,0.0,0.0,0.0,0.0,0.0,0.0,0.0,0.0,0.0,0.0,0.0,0.0,0.0,0.0,0.0,0.0,0.0,0.0,0.0,0.0,0.0,0.0,0.0,0.0,0.0,0.0,0.0,0.0,0.0,0.0,0.0,0.0,0.0,0.0,0.0,0.0
365099129720,35,365099129720,camera_init,body,-0.01971228292765107,-0.04187709432879837,0.0291083171962102,-0.000935029820986173,0.0012616926155212638,0.001965066854115072,0.9999968361766128,2.9990418845908575e-06,-5.8197906403041966e-08,1.3338857398681348e-06,1.7606333913878181e-07,7.661620840970003e-07,-8.949199143082513e-07,-5.8197906403036116e-08,9.320350894320353e-07,-1.3969743174934653e-07,-2.563548436305581e-06,8.567178950387563e-07,4.573994798750162e-06,1.333885739868279e-06,-1.3969743174945008e-07,1.7963253198226156e-06,7.462079235459211e-07,-6.357777117557901e-06,-1.099523417308405e-06,1.760633391388761e-07,-2.5635484363060546e-06,7.462079235454846e-07,1.3939319485100584e-05,-5.184291791512854e-06,-1.4290357164079557e-05,7.661620840968348e-07,8.567178950391955e-07,-6.357777117557637e-06,-5.184291791515437e-06,4.600608201120404e-05,5.044065593706291e-06,-8.949199143083621e-07,4.573994798750713e-06,-1.0995234173079337e-06,-1.4290357164079274e-05,5.044065593704503e-06,3.3700913307167774e-05,0.0,0.0,0.0,0.0,0.0,0.0,0.0,0.0,0.0,0.0,0.0,0.0,0.0,0.0,0.0,0.0,0.0,0.0,0.0,0.0,0.0,0.0,0.0,0.0,0.0,0.0,0.0,0.0,0.0,0.0,0.0,0.0,0.0,0.0,0.0,0.0,0.0,0.0,0.0,0.0,0.0,0.0
365199793940,36,365199793940,camera_init,body,-0.01824934444741126,-0.04780151078173187,0.029984599229486278,-0.002885200903676852,0.0011742242090926787,0.0010349477490918218,0.999994612833693,3.367393382950472e-06,-6.552641864946322e-08,1.6198665299748512e-06,4.2794090944574825e-07,2.491795927435656e-07,-9.899595631756202e-07,-6.552641864945676e-08,9.196640262203171e-07,-1.2495785410712915e-07,-2.449533466877465e-06,6.812844961295262e-07,4.383323843300947e-06,1.619866529974837e-06,-1.2495785410721335e-07,2.0013289057023054e-06,9.062309721237967e-07,-6.7476311162748836e-06,-1.1210178252298476e-06,4.2794090944576784e-07,-2.449533466876949e-06,9.062309721234779e-07,1.3578840473423694e-05,-5.4732655131120425e-06,-1.3721728274123947e-05,2.4917959274298116e-07,6.812844961300179e-07,-6.74763111627464e-06,-5.473265513114467e-06,4.7561924922683515e-05,4.707420410818436e-06,-9.899595631757115e-07,4.383323843301376e-06,-1.1210178252295818e-06,-1.3721728274123634e-05,4.707420410816834e-06,3.2975677817820496e-05,0.0,0.0,0.0,0.0,0.0,0.0,0.0,0.0,0.0,0.0,0.0,0.0,0.0,0.0,0.0,0.0,0.0,0.0,0.0,0.0,0.0,0.0,0.0,0.0,0.0,0.0,0.0,0.0,0.0,0.0,0.0,0.0,0.0,0.0,0.0,0.0,0.0,0.0,0.0,0.0,0.0,0.0
365299530186,37,365299530186,camera_init,body,-0.015943643927208657,-0.04908057661543062,0.02898685282667506,-0.0007177281051286036,0.001223104445310486,0.002238033732492185,0.9999964900372873,3.282196101848383e-06,-1.314710654039691e-07,1.4307226598203106e-06,2.2566901923779192e-07,9.070934841080307e-07,-9.55144365452866e-07,-1.3147106540397756e-07,8.75532247718827e-07,-1.1766365353529389e-07,-2.4085482182154192e-06,5.834347955371693e-07,4.241158714312765e-06,1.430722659820355e-06,-1.1766365353535238e-07,1.8385000288453947e-06,7.130712675319094e-07,-6.409949715366987e-06,-8.447783452100686e-07,2.256690192378726e-07,-2.408548218215402e-06,7.130712675314968e-07,1.3391608463282027e-05,-5.126010398395716e-06,-1.3539918434266905e-05,9.070934841077788e-07,5.834347955375436e-07,-6.40994971536637e-06,-5.126010398397913e-06,4.6912522509063e-05,3.792172143962948e-06,-9.551443654529232e-07,4.241158714312425e-06,-8.447783452098069e-07,-1.353991843426661e-05,3.7921721439614795e-06,3.223231950039806e-05,0.0,0.0,0.0,0.0,0.0,0.0,0.0,0.0,0.0,0.0,0.0,0.0,0.0,0.0,0.0,0.0,0.0,0.0,0.0,0.0,0.0,0.0,0.0,0.0,0.0,0.0,0.0,0.0,0.0,0.0,0.0,0.0,0.0,0.0,0.0,0.0,0.0,0.0,0.0,0.0,0.0,0.0
365397079180,38,365397079180,camera_init,body,-0.016416240545842706,-0.049606996749448434,0.03098503489733486,-0.0013324430951155153,0.0012527411884989547,0.001953707836843468,0.9999964191238888,3.120421000951654e-06,-7.895101665377966e-08,1.429426725097324e-06,-1.968143016375852e-08,9.392327776168458e-07,-7.171181672889198e-07,-7.895101665377672e-08,8.647463096179839e-07,-1.5551966852622977e-07,-2.3884782663233584e-06,8.651664637510266e-07,4.1900073896802404e-06,1.4294267250973735e-06,-1.5551966852626593e-07,1.8465224179937479e-06,6.993831180561095e-07,-6.262669883732757e-06,-9.866610192919466e-07,-1.968143016380786e-08,-2.3884782663233144e-06,6.993831180560278e-07,1.326668661856791e-05,-5.485391948932168e-06,-1.346249725311848e-05,9.392327776170564e-07,8.651664637514004e-07,-6.262669883734001e-06,-5.485391948934159e-06,4.620281467286285e-05,4.829165358551629e-06,-7.171181672889647e-07,4.190007389680314e-06,-9.86661019291804e-07,-1.3462497253118244e-05,4.829165358550344e-06,3.213657810710109e-05,0.0,0.0,0.0,0.0,0.0,0.0,0.0,0.0,0.0,0.0,0.0,0.0,0.0,0.0,0.0,0.0,0.0,0.0,0.0,0.0,0.0,0.0,0.0,0.0,0.0,0.0,0.0,0.0,0.0,0.0,0.0,0.0,0.0,0.0,0.0,0.0,0.0,0.0,0.0,0.0,0.0,0.0
365499262132,39,365499262132,camera_init,body,-0.016553179639873666,-0.05254646789162436,0.02753221361137206,-0.0014099342853158225,0.0014166517000607445,0.0020452638551404787,0.9999959110311573,3.0485248579904386e-06,-9.441996138328745e-08,1.3873692480021035e-06,1.5333202155331843e-07,7.076168683023215e-07,-9.908501851469697e-07,-9.441996138327538e-08,8.542483306252577e-07,-1.4968030010716754e-07,-2.3108577912294935e-06,7.92846397689986e-07,4.0845566132236225e-06,1.3873692480018595e-06,-1.4968030010716063e-07,1.8095312890379942e-06,6.989972160400773e-07,-6.3623233580963266e-06,-1.0946835516877904e-06,1.5333202155321038e-07,-2.310857791229313e-06,6.989972160400552e-07,1.3013417293692638e-05,-5.116426891896539e-06,-1.3070489132183303e-05,7.076168683025587e-07,7.928463976901202e-07,-6.3623233580973794e-06,-5.1164268918984174e-06,4.6704386896615e-05,4.727406414121177e-06,-9.908501851469267e-07,4.0845566132234895e-06,-1.0946835516878054e-06,-1.3070489132183079e-05,4.727406414120005e-06,3.148169981352756e-05,0.0,0.0,0.0,0.0,0.0,0.0,0.0,0.0,0.0,0.0,0.0,0.0,0.0,0.0,0.0,0.0,0.0,0.0,0.0,0.0,0.0,0.0,0.0,0.0,0.0,0.0,0.0,0.0,0.0,0.0,0.0,0.0,0.0,0.0,0.0,0.0,0.0,0.0,0.0,0.0,0.0,0.0
365599213581,40,365599213581,camera_init,body,-0.01746463359459736,-0.054913760150706814,0.028526553158879645,-0.002530236608377084,0.0013660968462982188,0.0016312906556283052,0.9999945352715225,3.090278386518752e-06,-1.416232928636304e-07,1.4236119684034255e-06,1.666361206288354e-07,8.802320665830283e-07,-7.07096274146823e-07,-1.4162329286363746e-07,9.116232940116373e-07,-2.0628084717514936e-07,-2.4289774071980336e-06,9.199199988766307e-07,4.230431002094215e-06,1.4236119684034177e-06,-2.06280847175193e-07,1.8888535069134466e-06,7.14975910677494e-07,-6.4152714951714325e-06,-1.0876798695017276e-06,1.666361206288051e-07,-2.428977407197866e-06,7.149759106772776e-07,1.2995924656144926e-05,-4.712116945195567e-06,-1.3083527513162903e-05,8.80232066582667e-07,9.199199988769432e-07,-6.415271495170608e-06,-4.7121169451973275e-06,4.624571435552124e-05,5.1593330091492875e-06,-7.070962741468194e-07,4.230431002094171e-06,-1.0876798695016003e-06,-1.3083527513162736e-05,5.159333009148238e-06,3.1822705187592695e-05,0.0,0.0,0.0,0.0,0.0,0.0,0.0,0.0,0.0,0.0,0.0,0.0,0.0,0.0,0.0,0.0,0.0,0.0,0.0,0.0,0.0,0.0,0.0,0.0,0.0,0.0,0.0,0.0,0.0,0.0,0.0,0.0,0.0,0.0,0.0,0.0,0.0,0.0,0.0,0.0,0.0,0.0
365698391439,41,365698391439,camera_init,body,-0.0183084316547531,-0.05764829015831571,0.030799538544386176,-0.001085158638535642,0.001513037028777955,0.002550928533535715,0.9999950129442121,3.2013750078890594e-06,-6.636102987588652e-08,1.511840452509007e-06,-2.1715268319494977e-08,2.2140128853155682e-07,-7.682126803048751e-07,-6.636102987589693e-08,8.456336639334682e-07,-1.1691032260899722e-07,-2.221433060693509e-06,7.500478374116652e-07,4.075334215029429e-06,1.5118404525090614e-06,-1.1691032260902414e-07,1.976703965081299e-06,5.554154882074406e-07,-6.741942798817081e-06,-9.527332947000659e-07,-2.1715268319522347e-08,-2.2214330606938776e-06,5.554154882072487e-07,1.2838902468462368e-05,-4.784183143855247e-06,-1.273416285758047e-05,2.214012885312742e-07,7.500478374119155e-07,-6.741942798816493e-06,-4.784183143856896e-06,4.6225602524268324e-05,4.880346089894855e-06,-7.682126803048919e-07,4.075334215029029e-06,-9.527332946998966e-07,-1.273416285758034e-05,4.880346089893887e-06,3.1240779108054174e-05,0.0,0.0,0.0,0.0,0.0,0.0,0.0,0.0,0.0,0.0,0.0,0.0,0.0,0.0,0.0,0.0,0.0,0.0,0.0,0.0,0.0,0.0,0.0,0.0,0.0,0.0,0.0,0.0,0.0,0.0,0.0,0.0,0.0,0.0,0.0,0.0,0.0,0.0,0.0,0.0,0.0,0.0
365797106987,42,365797106987,camera_init,body,-0.016019249943830496,-0.05430481502488688,0.033434287280132466,-0.002359077606977757,0.0010600454289570818,0.0018140278111458314,0.9999950101673674,3.223940261313253e-06,-1.865694101886437e-07,1.431758307244448e-06,1.2633274784946314e-07,8.152565237795533e-07,-9.219585962511862e-07,-1.8656941018862573e-07,8.905480670064851e-07,-1.941497812825383e-07,-2.333880907137508e-06,8.162396005118619e-07,4.170078174139329e-06,1.4317583072444267e-06,-1.9414978128257385e-07,1.8698957131584618e-06,6.291299468213771e-07,-6.425090749840332e-06,-1.055012705085183e-06,1.2633274784946465e-07,-2.3338809071375972e-06,6.291299468211108e-07,1.2973214609319835e-05,-4.53066259296544e-06,-1.2782260806940647e-05,8.152565237795237e-07,8.162396005120505e-07,-6.425090749840274e-06,-4.530662592967043e-06,4.647644420654599e-05,4.748639445028727e-06,-9.219585962512132e-07,4.170078174139796e-06,-1.0550127050849632e-06,-1.2782260806940528e-05,4.748639445027811e-06,3.16213433441823e-05,0.0,0.0,0.0,0.0,0.0,0.0,0.0,0.0,0.0,0.0,0.0,0.0,0.0,0.0,0.0,0.0,0.0,0.0,0.0,0.0,0.0,0.0,0.0,0.0,0.0,0.0,0.0,0.0,0.0,0.0,0.0,0.0,0.0,0.0,0.0,0.0,0.0,0.0,0.0,0.0,0.0,0.0
365895302481,43,365895302481,camera_init,body,-0.019033931880092773,-0.05866584297760794,0.035721781658383474,-0.0018078765555979814,0.0016448346408938846,0.0022758435589317243,0.9999944233031801,3.173003181445821e-06,-1.2628758873379924e-07,1.3718121216454484e-06,-7.218851591199111e-08,1.1091660132239307e-06,-6.278353900254513e-07,-1.2628758873378926e-07,8.415146807894366e-07,-1.534085287058143e-07,-2.3245040626291037e-06,8.07976314275144e-07,4.0279420623247096e-06,1.3718121216454107e-06,-1.5340852870584182e-07,1.7457220479296569e-06,5.298807121255058e-07,-5.972293447795257e-06,-8.794981404507488e-07,-7.218851591201745e-08,-2.3245040626292325e-06,5.298807121253343e-07,1.2912419944332085e-05,-4.645804341468091e-06,-1.284518655790291e-05,1.1091660132237088e-06,8.079763142753523e-07,-5.972293447794762e-06,-4.645804341469548e-06,4.5024238744161804e-05,4.959264263351452e-06,-6.278353900254802e-07,4.027942062324521e-06,-8.794981404505916e-07,-1.2845186557902786e-05,4.959264263350585e-06,3.1255066249736564e-05,0.0,0.0,0.0,0.0,0.0,0.0,0.0,0.0,0.0,0.0,0.0,0.0,0.0,0.0,0.0,0.0,0.0,0.0,0.0,0.0,0.0,0.0,0.0,0.0,0.0,0.0,0.0,0.0,0.0,0.0,0.0,0.0,0.0,0.0,0.0,0.0,0.0,0.0,0.0,0.0,0.0,0.0
365994404210,44,365994404210,camera_init,body,-0.02002132621829811,-0.05408495955062987,0.03549201271548796,-0.00046436841672337363,0.0015918097729618796,0.0029551726367545304,0.9999942587126724,3.2314152969196462e-06,-1.533000962762667e-07,1.275912912046986e-06,1.5661476512983522e-07,1.3370616063221882e-06,-1.2028085487413468e-06,-1.5330009627627788e-07,8.93628279525207e-07,-1.6712057196814464e-07,-2.285905288644876e-06,7.694309443372798e-07,4.257667701010995e-06,1.2759129120468439e-06,-1.6712057196816267e-07,1.7155683285842804e-06,6.375018868531005e-07,-6.087276452118989e-06,-1.1354622333748124e-06,1.56614765129793e-07,-2.2859052886448383e-06,6.375018868531026e-07,1.2638230235395161e-05,-4.649762398462293e-06,-1.2746262209336908e-05,1.3370616063223368e-06,7.694309443375105e-07,-6.087276452119692e-06,-4.649762398463691e-06,4.550333401401928e-05,4.796292266662845e-06,-1.2028085487413425e-06,4.257667701010824e-06,-1.1354622333748242e-06,-1.274626220933679e-05,4.796292266662023e-06,3.169103587687408e-05,0.0,0.0,0.0,0.0,0.0,0.0,0.0,0.0,0.0,0.0,0.0,0.0,0.0,0.0,0.0,0.0,0.0,0.0,0.0,0.0,0.0,0.0,0.0,0.0,0.0,0.0,0.0,0.0,0.0,0.0,0.0,0.0,0.0,0.0,0.0,0.0,0.0,0.0,0.0,0.0,0.0,0.0
366099632843,45,366099632843,camera_init,body,-0.0211070726006512,-0.05281814031361228,0.0365255476773987,-0.0021118655633688443,0.0015631294899724434,0.0018176471808493647,0.9999948963913597,2.7848110522279e-06,-8.054526782406451e-08,1.1170950709568825e-06,4.175580097853241e-08,1.252755363724192e-06,-8.736767193829607e-07,-8.054526782406754e-08,9.153520708238638e-07,-1.3837056300726671e-07,-2.4125538215398968e-06,7.907257780222679e-07,4.304636623086334e-06,1.1170950709569446e-06,-1.3837056300729144e-07,1.657249522679687e-06,6.077401987139159e-07,-6.1210138539717675e-06,-1.0552114662302078e-06,4.175580097861557e-08,-2.412553821540127e-06,6.077401987136435e-07,1.3002825369362852e-05,-4.803535203874588e-06,-1.3161916576359212e-05,1.2527553637238062e-06,7.907257780224042e-07,-6.121013853971494e-06,-4.803535203875973e-06,4.528127268561354e-05,5.036852901023473e-06,-8.736767193830427e-07,4.304636623086547e-06,-1.0552114662300554e-06,-1.3161916576359084e-05,5.036852901022633e-06,3.220695710320852e-05,0.0,0.0,0.0,0.0,0.0,0.0,0.0,0.0,0.0,0.0,0.0,0.0,0.0,0.0,0.0,0.0,0.0,0.0,0.0,0.0,0.0,0.0,0.0,0.0,0.0,0.0,0.0,0.0,0.0,0.0,0.0,0.0,0.0,0.0,0.0,0.0,0.0,0.0,0.0,0.0,0.0,0.0
366199468884,46,366199468884,camera_init,body,-0.02102198968708495,-0.05650995674648522,0.03323759532034998,-0.002003256868341714,0.001548923899619536,0.0019382499127632243,0.9999949154790483,3.394793635251513e-06,-5.892873386562022e-08,1.5269296294926028e-06,1.4576825790215075e-07,1.1355931125682854e-06,-6.667098064734604e-07,-5.892873386563167e-08,9.153554484702319e-07,-1.5391423122984297e-07,-2.405351446782989e-06,8.449659878442307e-07,4.351726028323273e-06,1.5269296294927542e-06,-1.5391423122990923e-07,1.848449443352801e-06,6.924601946299768e-07,-6.085751492203333e-06,-1.0588680159533636e-06,1.4576825790223596e-07,-2.4053514467829347e-06,6.92460194629628e-07,1.336095133212674e-05,-5.157094532863693e-06,-1.3293667235326833e-05,1.1355931125679354e-06,8.449659878445295e-07,-6.085751492202951e-06,-5.157094532865087e-06,4.6718900634781166e-05,5.3519742898832995e-06,-6.667098064735711e-07,4.351726028323711e-06,-1.0588680159531243e-06,-1.329366723532668e-05,5.35197428988248e-06,3.273860748024574e-05,0.0,0.0,0.0,0.0,0.0,0.0,0.0,0.0,0.0,0.0,0.0,0.0,0.0,0.0,0.0,0.0,0.0,0.0,0.0,0.0,0.0,0.0,0.0,0.0,0.0,0.0,0.0,0.0,0.0,0.0,0.0,0.0,0.0,0.0,0.0,0.0,0.0,0.0,0.0,0.0,0.0,0.0
366299302259,47,366299302259,camera_init,body,-0.022826118100500056,-0.05627425035312769,0.03264280634472589,-0.0013708486193249343,0.0016826091583509262,0.002590330436923015,0.999994289878053,3.0725447396996174e-06,-6.368980052071516e-08,1.3185740138808978e-06,4.3821397115471743e-08,1.1431355402872107e-06,-8.839877559064185e-07,-6.368980052071325e-08,9.17040810729726e-07,-1.548582326445325e-07,-2.434996867969022e-06,8.718746315803125e-07,4.426569279527845e-06,1.3185740138807872e-06,-1.5485823264456022e-07,1.7343992643856936e-06,5.890639769970836e-07,-5.995611674455203e-06,-1.0814321027589368e-06,4.382139711549006e-08,-2.4349968679693116e-06,5.890639769969499e-07,1.3117057973439043e-05,-4.582078943463855e-06,-1.329768265034342e-05,1.1431355402873139e-06,8.718746315806345e-07,-5.99561167445564e-06,-4.582078943465124e-06,4.483115458945114e-05,4.740594706792004e-06,-8.839877559064267e-07,4.426569279528414e-06,-1.081432102758886e-06,-1.3297682650343275e-05,4.740594706791217e-06,3.269863755730084e-05,0.0,0.0,0.0,0.0,0.0,0.0,0.0,0.0,0.0,0.0,0.0,0.0,0.0,0.0,0.0,0.0,0.0,0.0,0.0,0.0,0.0,0.0,0.0,0.0,0.0,0.0,0.0,0.0,0.0,0.0,0.0,0.0,0.0,0.0,0.0,0.0,0.0,0.0,0.0,0.0,0.0,0.0
366399056056,48,366399056056,camera_init,body,-0.02502961579344324,-0.05748077243581617,0.03464221323604436,-0.0015289953082764402,0.0016449131678111073,0.002334962210827574,0.9999947521789773,3.037363165066892e-06,2.102810920110826e-08,1.443173008431852e-06,-7.118489022609813e-08,5.287731448396192e-07,-5.708033741401094e-07,2.1028109201124803e-08,9.099890551455783e-07,-9.552652069376744e-08,-2.4297557828705664e-06,8.03054506269519e-07,4.299864089080134e-06,1.4431730084319245e-06,-9.552652069379528e-08,1.8383143782083804e-06,5.712870039466711e-07,-6.229520687940287e-06,-9.404085462388655e-07,-7.118489022607024e-08,-2.429755782870857e-06,5.712870039465001e-07,1.3296519128431834e-05,-5.129956531463154e-06,-1.331457710411586e-05,5.287731448396215e-07,8.030545062698514e-07,-6.229520687940853e-06,-5.129956531464381e-06,4.5188378705861594e-05,4.891617017460081e-06,-5.708033741400795e-07,4.299864089080904e-06,-9.404085462388824e-07,-1.3314577104115679e-05,4.89161701745932e-06,3.262104119155083e-05,0.0,0.0,0.0,0.0,0.0,0.0,0.0,0.0,0.0,0.0,0.0,0.0,0.0,0.0,0.0,0.0,0.0,0.0,0.0,0.0,0.0,0.0,0.0,0.0,0.0,0.0,0.0,0.0,0.0,0.0,0.0,0.0,0.0,0.0,0.0,0.0,0.0,0.0,0.0,0.0,0.0,0.0
