%time,field.header.seq,field.header.stamp,field.header.frame_id,field.child_frame_id,field.pose.pose.position.x,field.pose.pose.position.y,field.pose.pose.position.z,field.pose.pose.orientation.x,field.pose.pose.orientation.y,field.pose.pose.orientation.z,field.pose.pose.orientation.w,field.pose.covariance0,field.pose.covariance1,field.pose.covariance2,field.pose.covariance3,field.pose.covariance4,field.pose.covariance5,field.pose.covariance6,field.pose.covariance7,field.pose.covariance8,field.pose.covariance9,field.pose.covariance10,field.pose.covariance11,field.pose.covariance12,field.pose.covariance13,field.pose.covariance14,field.pose.covariance15,field.pose.covariance16,field.pose.covariance17,field.pose.covariance18,field.pose.covariance19,field.pose.covariance20,field.pose.covariance21,field.pose.covariance22,field.pose.covariance23,field.pose.covariance24,field.pose.covariance25,field.pose.covariance26,field.pose.covariance27,field.pose.covariance28,field.pose.covariance29,field.pose.covariance30,field.pose.covariance31,field.pose.covariance32,field.pose.covariance33,field.pose.covariance34,field.pose.covariance35,field.twist.twist.linear.x,field.twist.twist.linear.y,field.twist.twist.linear.z,field.twist.twist.angular.x,field.twist.twist.angular.y,field.twist.twist.angular.z,field.twist.covariance0,field.twist.covariance1,field.twist.covariance2,field.twist.covariance3,field.twist.covariance4,field.twist.covariance5,field.twist.covariance6,field.twist.covariance7,field.twist.covariance8,field.twist.covariance9,field.twist.covariance10,field.twist.covariance11,field.twist.covariance12,field.twist.covariance13,field.twist.covariance14,field.twist.covariance15,field.twist.covariance16,field.twist.covariance17,field.twist.covariance18,field.twist.covariance19,field.twist.covariance20,field.twist.covariance21,field.twist.covariance22,field.twist.covariance23,field.twist.covariance24,field.twist.covariance25,field.twist.covariance26,field.twist.covariance27,field.twist.covariance28,field.twist.covariance29,field.twist.covariance30,field.twist.covariance31,field.twist.covariance32,field.twist.covariance33,field.twist.covariance34,field.twist.covariance35
1776753649761470556,0,1776753649761470556,camera_init,body,0.03879901243790604,-0.02088323613797691,-8.211270805241333e-06,2.752773618594006e-06,-1.5655757686141644e-06,0.006983455326688505,0.9999756153735304,0.0,0.0,0.0,0.0,0.0,0.0,0.0,0.0,0.0,0.0,0.0,0.0,0.0,0.0,0.0,0.0,0.0,0.0,0.0,0.0,0.0,0.0,0.0,0.0,0.0,0.0,0.0,0.0,0.0,0.0,0.0,0.0,0.0,0.0,0.0,0.0,0.0,0.0,0.0,0.0,0.0,0.0,0.0,0.0,0.0,0.0,0.0,0.0,0.0,0.0,0.0,0.0,0.0,0.0,0.0,0.0,0.0,0.0,0.0,0.0,0.0,0.0,0.0,0.0,0.0,0.0,0.0,0.0,0.0,0.0,0.0,0.0,0.0,0.0,0.0,0.0,0.0,0.0
1776753649861470699,1,1776753649861470699,camera_init,body,-0.04074778888892499,-0.0491833086327342,-2.7865153563438263e-05,-9.151855728930725e-07,-4.206839628657025e-06,0.013960088577913279,0.9999025532062416,4.294868904963778e-10,2.463756802469997e-11,-1.2622184130397861e-11,-3.812454258539377e-12,3.007771809393489e-10,2.823327602498619e-10,2.4637639220419974e-11,7.388192280188832e-10,-1.34320692425011e-12,-8.309783416926564e-11,-7.368117184089473e-12,3.157896513639617e-09,-1.2622385913127655e-11,-1.3421557409810535e-12,1.9093806535863678e-09,-2.151997265940811e-09,-8.022930110917194e-09,-2.0142169954574776e-11,-3.943927866581487e-12,-8.456702005332772e-11,-2.152060607533016e-09,2.502871461196321e-07,-6.1144256741225514e-09,1.352444988833692e-09,3.0078692314639e-10,-7.273640023619521e-12,-8.02292975058816e-09,-6.114403132319534e-09,4.1144361473399726e-08,2.354760999558778e-11,2.8233169784351095e-10,3.1578843665357516e-09,-2.0142313660927738e-11,1.352152031731319e-09,2.356871213590894e-11,1.5947318798836818e-08,0.0,0.0,0.0,0.0,0.0,0.0,0.0,0.0,0.0,0.0,0.0,0.0,0.0,0.0,0.0,0.0,0.0,0.0,0.0,0.0,0.0,0.0,0.0,0.0,0.0,0.0,0.0,0.0,0.0,0.0,0.0,0.0,0.0,0.0,0.0,0.0,0.0,0.0,0.0,0.0,0.0,0.0
1776753649961470604,2,1776753649961470604,camera_init,body,-0.12970537163456525,-0.07842910503569742,3.559872209362687e-05,8.19605007775786e-06,6.590608212888998e-06,0.018232238912002995,0.9998337788620885,4.343014708713816e-10,2.9960921669053847e-11,-5.8466617812140205e-12,1.6656867618927744e-10,2.5917607665156403e-10,3.163767341053452e-10,2.996092166721977e-11,7.64852959260617e-10,-4.289165295184755e-13,-1.651383252618953e-10,-1.0823039416460543e-11,3.193896126985941e-09,-5.846661779462e-12,-4.2891653071524224e-13,2.0755220888582938e-09,-4.854793450217716e-09,-8.423097503832434e-09,-9.969074700272047e-12,1.6656867500798246e-10,-1.6513832507163053e-10,-4.854793439586205e-09,5.222166357260472e-07,-1.124835663080712e-08,-2.2492922637824878e-10,2.591760767709957e-10,-1.0823039460865253e-11,-8.423097504089634e-09,-1.124835707873308e-08,4.262337918725656e-08,6.948585737235914e-11,3.1637673421348124e-10,3.1938961255503604e-09,-9.969074705180947e-12,-2.2492922417935735e-10,6.948585759150534e-11,1.5821945408348026e-08,0.0,0.0,0.0,0.0,0.0,0.0,0.0,0.0,0.0,0.0,0.0,0.0,0.0,0.0,0.0,0.0,0.0,0.0,0.0,0.0,0.0,0.0,0.0,0.0,0.0,0.0,0.0,0.0,0.0,0.0,0.0,0.0,0.0,0.0,0.0,0.0,0.0,0.0,0.0,0.0,0.0,0.0
1776753650061470747,3,1776753650061470747,camera_init,body,-0.19365310734233307,-0.10920006573390745,-3.7678709742922515e-05,-1.1045370413749127e-05,-1.1412673544009307e-05,0.019921624259327725,0.9998015446250423,4.674443858924309e-10,4.9566984733053075e-11,2.523655454388116e-10,6.520501721888983e-10,-2.1254383334848138e-10,3.7017247702464484e-10,4.956698438717939e-11,7.547749661873052e-10,2.5620474286300417e-10,8.187615050030901e-10,-5.305712359487588e-10,3.0407317833167674e-09,2.523655321592375e-10,2.562046417998232e-10,5.209541584227928e-08,-1.853146792808693e-07,-8.012487878712762e-08,8.096022897492307e-10,6.520503533037595e-10,8.187629247170247e-10,-1.8531467714033974e-07,2.460808489480116e-06,1.4418258458261027e-07,2.567317950498277e-09,-2.125438235516983e-10,-5.30571165696488e-10,-8.012487900162508e-08,1.4418258907594755e-07,1.608535706295451e-07,-1.5993354877156447e-09,3.7017247519651794e-10,3.0407317822419806e-09,8.096027855845713e-10,2.567310843767652e-09,-1.5993358172958498e-09,1.474500399302535e-08,0.0,0.0,0.0,0.0,0.0,0.0,0.0,0.0,0.0,0.0,0.0,0.0,0.0,0.0,0.0,0.0,0.0,0.0,0.0,0.0,0.0,0.0,0.0,0.0,0.0,0.0,0.0,0.0,0.0,0.0,0.0,0.0,0.0,0.0,0.0,0.0,0.0,0.0,0.0,0.0,0.0,0.0
1776753650161470652,4,1776753650161470652,camera_init,body,-0.2557023962943413,-0.14258310511925704,-5.2983220763053174e-05,-1.0308724203630906e-05,-9.699538107633217e-06,0.022894424042821618,0.9997378882224066,4.75790688484357e-10,5.4737853067479215e-11,7.710448361791434e-11,1.0285602072214432e-09,8.302958984077715e-11,3.658826101799085e-10,5.473785312741561e-11,7.554920653307716e-10,-1.0212023150247127e-10,1.3079549733419108e-09,3.233334054383281e-11,2.9515983747723586e-09,7.710448463992724e-11,-1.021202210106303e-10,5.430827871199579e-08,-1.1531545320768867e-07,-8.252261002841575e-08,-2.1962924255760474e-10,1.0285601677781132e-09,1.3079546167512044e-09,-1.1531545298173784e-07,2.2537775682278776e-06,3.1071339459271124e-08,3.373829674989197e-09,8.302959141255266e-11,3.2333351641423566e-11,-8.252261004905151e-08,3.107133992177282e-08,1.6731302382145106e-07,6.170875914893004e-11,3.6588261060892655e-10,2.9515983755755435e-09,-2.1962928622998698e-10,3.373830591644186e-09,6.170876514630878e-11,1.4029404393634034e-08,0.0,0.0,0.0,0.0,0.0,0.0,0.0,0.0,0.0,0.0,0.0,0.0,0.0,0.0,0.0,0.0,0.0,0.0,0.0,0.0,0.0,0.0,0.0,0.0,0.0,0.0,0.0,0.0,0.0,0.0,0.0,0.0,0.0,0.0,0.0,0.0,0.0,0.0,0.0,0.0,0.0,0.0
1776753650261470556,5,1776753650261470556,camera_init,body,-0.32576633388051757,-0.16141720805137208,-3.6194986042115484e-05,-5.364148455240889e-06,-7.172443096556822e-06,0.023000657853392364,0.9997354498356522,4.826922829265137e-10,4.986152496418555e-11,-1.2780731558564822e-10,7.911694799483674e-10,3.8040340179842993e-10,3.2154050282904585e-10,4.986152499423046e-11,7.748037061385774e-10,1.695438491822141e-10,9.136568205353747e-10,-4.1119677849911357e-10,2.943754394219127e-09,-1.278073152217962e-10,1.695438516783944e-10,9.551888043025892e-08,-8.619657635715631e-08,-1.5115823382370776e-07,3.3280322244680356e-10,7.911694739918928e-10,9.136567557546125e-10,-8.619657648443851e-08,1.1960061437521102e-06,1.851514933317811e-08,2.6886840133223487e-09,3.804034018817568e-10,-4.1119677528558306e-10,-1.5115823380816963e-07,1.8515149092554806e-08,2.897700609540166e-07,-9.009640012159001e-10,3.215405029629794e-10,2.943754394436507e-09,3.328032060705896e-10,2.6886841886560157e-09,-9.00963991276251e-10,1.3714887620235297e-08,0.0,0.0,0.0,0.0,0.0,0.0,0.0,0.0,0.0,0.0,0.0,0.0,0.0,0.0,0.0,0.0,0.0,0.0,0.0,0.0,0.0,0.0,0.0,0.0,0.0,0.0,0.0,0.0,0.0,0.0,0.0,0.0,0.0,0.0,0.0,0.0,0.0,0.0,0.0,0.0,0.0,0.0
1776753650361470699,6,1776753650361470699,camera_init,body,-0.3811485426584504,-0.1706934094713814,-4.2203849085264455e-05,-5.343256366846363e-06,-8.358704074861195e-06,0.023309914429225753,0.9997282869814603,5.035287781076769e-10,5.437264556516586e-11,7.019118319019339e-11,-3.3129208700177014e-10,1.621577944850999e-10,3.3138963128402113e-10,5.437264556767652e-11,8.298737079470708e-10,-1.182852240624593e-10,5.923750107024929e-10,9.803494300572702e-11,3.0334987819346984e-09,7.019118323639993e-11,-1.182852237354882e-10,1.721319555875677e-07,-1.0404634054467922e-07,-2.4411081271877004e-07,-1.2751953246351578e-10,-3.3129208527167226e-10,5.923750210246482e-10,-1.0404634048516082e-07,1.988560592743072e-06,-9.78096053498417e-10,1.8969688362306386e-09,1.6215779430552892e-10,9.803494142930606e-11,-2.4411081272441303e-07,-9.780959424498698e-10,4.3965004843455486e-07,1.3429772430329466e-11,3.3138963129881525e-10,3.033498781948472e-09,-1.2751953402489725e-10,1.8969687876253834e-09,1.3429779834184901e-11,1.3705771333417202e-08,0.0,0.0,0.0,0.0,0.0,0.0,0.0,0.0,0.0,0.0,0.0,0.0,0.0,0.0,0.0,0.0,0.0,0.0,0.0,0.0,0.0,0.0,0.0,0.0,0.0,0.0,0.0,0.0,0.0,0.0,0.0,0.0,0.0,0.0,0.0,0.0,0.0,0.0,0.0,0.0,0.0,0.0
1776753650461470604,7,1776753650461470604,camera_init,body,-0.43463471345084653,-0.1593156110464167,-1.8906784700861515e-05,-5.196246620388167e-06,-3.347047717950646e-06,0.023090549702920828,0.9997333776943805,4.985969359822331e-10,5.0451480061774894e-11,-9.885549259631836e-11,5.817285975454319e-11,3.9285396917535474e-10,2.996515017207635e-10,5.045148006399008e-11,8.566706901895634e-10,-2.986545492610779e-10,1.0222354795471204e-09,2.769761640287727e-10,3.068211976185951e-09,-9.885549267828339e-11,-2.9865455051333485e-10,3.634565527986148e-07,-1.970336785041695e-07,-4.898477865397653e-07,-5.660225408998585e-10,5.8172860842543774e-11,1.0222354912457042e-09,-1.970336783900282e-07,1.0509274070036884e-06,2.0528064591165588e-07,3.0708039289547826e-09,3.9285396921029485e-10,2.7697616471124964e-10,-4.898477865542578e-07,2.0528064610873276e-07,8.165132088702704e-07,3.9246998691463673e-10,2.9965150171113844e-10,3.068211975998916e-09,-5.660225353610365e-10,3.0708038763608728e-09,3.9246998406043245e-10,1.3613073903848375e-08,0.0,0.0,0.0,0.0,0.0,0.0,0.0,0.0,0.0,0.0,0.0,0.0,0.0,0.0,0.0,0.0,0.0,0.0,0.0,0.0,0.0,0.0,0.0,0.0,0.0,0.0,0.0,0.0,0.0,0.0,0.0,0.0,0.0,0.0,0.0,0.0,0.0,0.0,0.0,0.0,0.0,0.0
1776753650561470747,8,1776753650561470747,camera_init,body,-0.5020407034797423,-0.14982613997979638,-4.5818881451902646e-05,-1.911242296148092e-06,-9.147997434684445e-06,0.024004827792858886,0.9997118425602943,4.973849915919024e-10,4.325083062862878e-11,-5.6542056417903204e-11,-5.205638685240308e-10,4.3834405382428263e-10,2.551927657574522e-10,4.325083064044789e-11,8.610597288487157e-10,4.404560735700285e-11,2.7105778393276253e-11,-1.2838622317151296e-10,3.0208484365399817e-09,-5.654205632359461e-11,4.4045608503440283e-11,2.029736065898083e-08,5.5125991796944985e-08,-4.999913535039549e-08,1.698893775213033e-10,-5.205638669119352e-10,2.710580359187116e-11,5.512599181641388e-08,1.3856885480812915e-06,-2.3669886959225372e-07,3.214616982450238e-10,4.3834405345868203e-10,-1.2838622797998003e-10,-4.999913535130817e-08,-2.3669886953390014e-07,1.807790537330623e-07,-4.5344855625643947e-10,2.5519276580323253e-10,3.0208484366076893e-09,1.6988937252530962e-10,3.2146158815918244e-10,-4.534485353248382e-10,1.3155079147502248e-08,0.0,0.0,0.0,0.0,0.0,0.0,0.0,0.0,0.0,0.0,0.0,0.0,0.0,0.0,0.0,0.0,0.0,0.0,0.0,0.0,0.0,0.0,0.0,0.0,0.0,0.0,0.0,0.0,0.0,0.0,0.0,0.0,0.0,0.0,0.0,0.0,0.0,0.0,0.0,0.0,0.0,0.0
1776753650661470652,9,1776753650661470652,camera_init,body,-0.5622374544463054,-0.13813797514415063,-8.218119337194016e-05,-4.430283373294756e-06,-1.7006357663996235e-05,0.02429029057368639,0.9997049472094269,5.008728297975452e-10,3.481907298527075e-11,-1.7423122407581747e-10,-4.1490701711637945e-10,1.113009633624635e-10,2.5082617392457636e-10,3.481907299059244e-11,9.153644084101725e-10,9.502943302386228e-11,1.7587254295357191e-10,9.439887782412537e-11,3.1558523714425906e-09,-1.74231224047946e-10,9.502943309834656e-11,6.693787252431456e-08,2.2666007714447454e-08,-1.638798034111346e-07,2.099381192577532e-10,-4.1490701503687386e-10,1.758725697631176e-10,2.266600779518956e-08,1.751188700315867e-06,-1.5418587510261195e-10,9.999287414107305e-10,1.1130096336108707e-10,9.439887964557707e-11,-1.6387980340484054e-07,-1.541853792365015e-10,1.0296087124689087e-06,4.9253482288415124e-11,2.5082617393347517e-10,3.1558523714346054e-09,2.0993811883622804e-10,9.999286264086822e-10,4.92534756009133e-11,1.3507425241629326e-08,0.0,0.0,0.0,0.0,0.0,0.0,0.0,0.0,0.0,0.0,0.0,0.0,0.0,0.0,0.0,0.0,0.0,0.0,0.0,0.0,0.0,0.0,0.0,0.0,0.0,0.0,0.0,0.0,0.0,0.0,0.0,0.0,0.0,0.0,0.0,0.0,0.0,0.0,0.0,0.0,0.0,0.0
1776753650761470556,10,1776753650761470556,camera_init,body,-0.6179034212955312,-0.10357626696683707,-7.490605574717453e-05,-8.902712661195699e-06,-1.5402110219314418e-05,0.02360559472017386,0.9997213489675129,5.130944645396519e-10,3.483486292621349e-11,-2.974959334412747e-11,3.185945750680129e-10,3.0597501756078454e-10,2.6075428032575985e-10,3.483486292338779e-11,9.801401856137488e-10,1.9632071691077492e-11,7.969784674244415e-10,-2.400664070610607e-10,3.301682725354433e-09,-2.97495933222305e-11,1.9632072172034266e-11,1.6547104388748516e-07,2.8066829684331283e-08,-4.802636228466362e-07,6.393846221544146e-11,3.185945760473087e-10,7.969784801962161e-10,2.8066829755596536e-08,1.0906128182011016e-06,4.135690983987647e-07,2.6891724778390465e-09,3.059750179483021e-10,-2.400664031419319e-10,-4.802636228086257e-07,4.1356909881265916e-07,2.974389804817505e-06,-4.3416773431483524e-10,2.607542803025988e-10,3.3016827252814666e-09,6.393846015309071e-11,2.6891724246880343e-09,-4.3416775049341e-10,1.3822855864090584e-08,0.0,0.0,0.0,0.0,0.0,0.0,0.0,0.0,0.0,0.0,0.0,0.0,0.0,0.0,0.0,0.0,0.0,0.0,0.0,0.0,0.0,0.0,0.0,0.0,0.0,0.0,0.0,0.0,0.0,0.0,0.0,0.0,0.0,0.0,0.0,0.0,0.0,0.0,0.0,0.0,0.0,0.0
1776753650861470699,11,1776753650861470699,camera_init,body,-0.6762094420979147,-0.09192686277684405,-4.19156752699577e-05,-6.834710303253341e-06,-6.822140905489331e-06,0.024010764963277382,0.9997116999778608,5.166164415069908e-10,3.4917290532015344e-11,7.263540286184547e-13,-1.3372409609615035e-10,3.5826112441656957e-11,2.953499123164325e-10,3.491729053206915e-11,1.0342981494328943e-09,-1.2468768421715814e-10,7.485883487057991e-10,7.371883329943692e-10,3.4066498259607975e-09,7.263539154248495e-13,-1.246876856951985e-10,2.0937527880995107e-07,-2.1578018453828014e-07,-8.964787193461148e-07,-2.7470756034151756e-10,-1.337240951400156e-10,7.485883598916103e-10,-2.1578018446508297e-07,1.156441029124181e-06,8.846771389657982e-07,2.2826392320155802e-09,3.582611281678667e-11,7.371883381901686e-10,-8.964787193617802e-07,8.846771393501229e-07,4.534251487731288e-06,1.4994500572590172e-09,2.95349912322279e-10,3.4066498261681866e-09,-2.7470755431264656e-10,2.282639186079459e-09,1.4994500355333566e-09,1.3989440622780725e-08,0.0,0.0,0.0,0.0,0.0,0.0,0.0,0.0,0.0,0.0,0.0,0.0,0.0,0.0,0.0,0.0,0.0,0.0,0.0,0.0,0.0,0.0,0.0,0.0,0.0,0.0,0.0,0.0,0.0,0.0,0.0,0.0,0.0,0.0,0.0,0.0,0.0,0.0,0.0,0.0,0.0,0.0
1776753650961470604,12,1776753650961470604,camera_init,body,-0.7274527729140751,-0.08308428467529959,-1.7524815510156346e-05,-2.480323786588835e-06,-2.572225616603746e-06,0.024039808180774974,0.9997110020450231,5.004961728060872e-10,5.180901861797084e-11,1.76678056550977e-10,-9.398249889104537e-11,-1.5687711099802622e-09,3.7078784914049964e-10,5.180901865277099e-11,1.0645046554644461e-09,-1.2459897573100696e-10,1.3185191748565473e-09,4.1613490245434435e-10,3.403650643355385e-09,1.7667805686236706e-10,-1.2459899652868014e-10,1.8978597323702958e-07,-3.1929985809529573e-07,-7.456697269867701e-07,-3.7768395046468246e-10,-9.39824886436871e-11,1.3185193990309107e-09,-3.1929985805283974e-07,1.5544340568635494e-06,1.4496116553569394e-06,3.729666838122796e-09,-1.568771118818204e-09,4.161349573588347e-10,-7.456697270092428e-07,1.4496116556581032e-06,4.5588834743228945e-06,1.6421485119118662e-09,3.707878491592568e-10,3.4036506435767946e-09,-3.776839426574491e-10,3.72966679240322e-09,1.6421484806405703e-09,1.3674516308293006e-08,0.0,0.0,0.0,0.0,0.0,0.0,0.0,0.0,0.0,0.0,0.0,0.0,0.0,0.0,0.0,0.0,0.0,0.0,0.0,0.0,0.0,0.0,0.0,0.0,0.0,0.0,0.0,0.0,0.0,0.0,0.0,0.0,0.0,0.0,0.0,0.0,0.0,0.0,0.0,0.0,0.0,0.0
1776753651061470747,13,1776753651061470747,camera_init,body,-0.780100083117382,-0.06065862579673478,-3.284322205206632e-05,-2.6908445476549314e-06,-5.318285484735427e-06,0.02572379100475396,0.9996690885192056,5.576510661662454e-10,2.3701002855371545e-11,1.673267676751637e-10,2.443956199633481e-10,-1.2850797387612486e-09,2.744811736781807e-10,2.3701002866798192e-11,1.1544850156362785e-09,-2.2664757458856092e-10,5.812575377446134e-10,8.674005472502183e-10,3.6643396567889807e-09,1.673267674258839e-10,-2.266475761897622e-10,7.743687414589468e-08,-2.481613664008075e-07,-2.6094262310054286e-07,-9.211968752321345e-10,2.443956198730464e-10,5.812575459693033e-10,-2.4816136639666706e-07,1.186047939520598e-06,7.362213741294729e-07,1.6785351887039293e-09,-1.2850797372905876e-09,8.674005516931774e-10,-2.6094262310301143e-07,7.362213741554848e-07,1.0735695638622906e-06,4.335355157947494e-09,2.7448117368986216e-10,3.664339656895565e-09,-9.21196869494225e-10,1.6785351589437377e-09,4.335355142295461e-09,1.4564832701581718e-08,0.0,0.0,0.0,0.0,0.0,0.0,0.0,0.0,0.0,0.0,0.0,0.0,0.0,0.0,0.0,0.0,0.0,0.0,0.0,0.0,0.0,0.0,0.0,0.0,0.0,0.0,0.0,0.0,0.0,0.0,0.0,0.0,0.0,0.0,0.0,0.0,0.0,0.0,0.0,0.0,0.0,0.0
1776753651161470652,14,1776753651161470652,camera_init,body,-0.8344657203929376,-0.04188029692861271,-3.977316410556971e-05,-5.947777444495666e-06,-6.401414505559103e-06,0.02691882960144707,0.999637622609581,5.723074369013564e-10,3.329291857652732e-11,1.2943052527229555e-11,2.9140638058267257e-10,9.792946014801401e-11,3.4794321855950696e-10,3.3292918568420926e-11,1.2343890315759105e-09,2.5942895768123678e-11,1.09663375963158e-09,5.933937583380564e-11,3.8096246420680825e-09,1.2943052377132489e-11,2.5942894141324163e-11,1.2194561803409958e-07,-3.552442214724768e-07,-4.00650467909994e-07,9.501851520530959e-11,2.9140638132419036e-10,1.0966337680695104e-09,-3.5524422145960443e-07,1.6395487596732494e-06,1.3786484936428333e-06,3.0566831026920833e-09,9.79294605552251e-11,5.93393804624635e-11,-4.006504679316846e-07,1.3786484937917044e-06,2.4760967216799296e-06,-7.484230514903225e-11,3.479432185900696e-10,3.80962464243221e-09,9.501852151234421e-11,3.056683070155215e-09,-7.484232290613501e-11,1.4797604483029158e-08,0.0,0.0,0.0,0.0,0.0,0.0,0.0,0.0,0.0,0.0,0.0,0.0,0.0,0.0,0.0,0.0,0.0,0.0,0.0,0.0,0.0,0.0,0.0,0.0,0.0,0.0,0.0,0.0,0.0,0.0,0.0,0.0,0.0,0.0,0.0,0.0,0.0,0.0,0.0,0.0,0.0,0.0
1776753651261470556,15,1776753651261470556,camera_init,body,-0.8831402673055482,-0.016268706789390155,-2.945606979163425e-05,-5.69730582061286e-06,-5.217758643894282e-06,0.02712815480166486,0.9996319638533835,6.079567238634516e-10,3.535711590598437e-11,-8.522909410062816e-11,8.642348556918496e-11,-1.1358523549670602e-10,3.525212355374736e-10,3.535711590587364e-11,1.3085939936497261e-09,1.533783474974255e-10,5.145791663703831e-10,-2.0895375546087078e-10,3.973010442670373e-09,-8.522909444195952e-11,1.533783437499503e-10,3.6006291312492867e-07,-8.71927561564392e-07,-8.385377163899524e-07,5.085527605216981e-10,8.64234868096978e-11,5.145791801051282e-10,-8.719275615581774e-07,3.1801866498644986e-06,2.982457427861587e-06,1.7065381203765306e-09,-1.1358523463315593e-10,-2.0895374587437025e-10,-8.385377164649315e-07,2.982457428152926e-06,4.9259965355968725e-06,-8.359857111505307e-10,3.525212355677997e-10,3.973010442675464e-09,5.085527747951072e-10,1.7065380678525569e-09,-8.359857476635204e-10,1.517948933072291e-08,0.0,0.0,0.0,0.0,0.0,0.0,0.0,0.0,0.0,0.0,0.0,0.0,0.0,0.0,0.0,0.0,0.0,0.0,0.0,0.0,0.0,0.0,0.0,0.0,0.0,0.0,0.0,0.0,0.0,0.0,0.0,0.0,0.0,0.0,0.0,0.0,0.0,0.0,0.0,0.0,0.0,0.0
1776753651361470699,16,1776753651361470699,camera_init,body,-0.9246182797263818,0.019276147987173572,-2.12320086376686e-05,-9.811510493802476e-06,-4.506495270409995e-06,0.026225487494384428,0.9996560526946797,5.943394246671124e-10,5.4576597094765586e-11,9.855459917357414e-11,-8.97329794528009e-11,-1.10839004271039e-09,4.683433102412387e-10,5.4576597095902397e-11,1.4060830710955412e-09,5.602715798212154e-11,6.011675429667971e-10,-1.366754324283807e-10,4.1841433934812376e-09,9.855459907786352e-11,5.602715700695433e-11,1.2332460369540276e-07,-3.2908088236634053e-07,-4.436104661921246e-07,2.1579310402003025e-11,-8.973297835176394e-11,6.011675519380407e-10,-3.290808823493535e-07,2.2472378308814696e-06,1.338374320902909e-06,2.3291177010951003e-09,-1.1083900423736943e-09,-1.3667542901319017e-10,-4.4361046619593983e-07,1.3383743209921057e-06,2.1872280158840225e-06,3.535262563008272e-10,4.683433102031586e-10,4.184143393133251e-09,2.1579314058860566e-11,2.329117667269068e-09,3.5352624342344156e-10,1.569780363291915e-08,0.0,0.0,0.0,0.0,0.0,0.0,0.0,0.0,0.0,0.0,0.0,0.0,0.0,0.0,0.0,0.0,0.0,0.0,0.0,0.0,0.0,0.0,0.0,0.0,0.0,0.0,0.0,0.0,0.0,0.0,0.0,0.0,0.0,0.0,0.0,0.0,0.0,0.0,0.0,0.0,0.0,0.0
1776753651461470604,17,1776753651461470604,camera_init,body,-0.9803526216984553,0.054175504844871214,-4.98097440448116e-05,-1.3495497800095326e-05,-9.438461980166534e-06,0.027341166919170646,0.999626160282075,6.145138412071236e-10,6.395390514966151e-11,5.307330853397649e-11,3.541408152643307e-10,-8.384021839450892e-10,5.017835523455614e-10,6.395390514499522e-11,1.4935758014888263e-09,-3.605160214293185e-11,5.042629853253033e-10,-2.0018349892775462e-11,4.324157571433317e-09,5.307330825570399e-11,-3.605160422808568e-11,2.4447735867178286e-07,-6.763832441198124e-07,-7.049689947544207e-07,-1.5394437594304606e-10,3.541408172246892e-10,5.042630011978537e-10,-6.763832440798175e-07,4.283503405142415e-06,2.314469769663946e-06,1.2061673853348998e-09,-8.384021830081648e-10,-2.0018343086462067e-11,-7.049689947597214e-07,2.3144697698363522e-06,2.7049149607714943e-06,7.404315698576191e-11,5.017835523732107e-10,4.324157571735281e-09,-1.5394436829686313e-10,1.2061673271081709e-09,7.404313214982873e-11,1.5863910853028703e-08,0.0,0.0,0.0,0.0,0.0,0.0,0.0,0.0,0.0,0.0,0.0,0.0,0.0,0.0,0.0,0.0,0.0,0.0,0.0,0.0,0.0,0.0,0.0,0.0,0.0,0.0,0.0,0.0,0.0,0.0,0.0,0.0,0.0,0.0,0.0,0.0,0.0,0.0,0.0,0.0,0.0,0.0
1776753651561470747,18,1776753651561470747,camera_init,body,-1.0286973937612465,0.08641287281722103,-3.7808739239647185e-06,-2.7714031701277687e-06,-7.717722957555092e-07,0.02863732142191488,0.9995898678025406,6.406706619621573e-10,9.250955380535565e-11,-2.3990145434202325e-10,1.1342077425438019e-09,3.9699438731929313e-10,5.931268411988055e-10,9.250955379365302e-11,1.632647051013898e-09,-1.8779894904258162e-10,2.7338251527621574e-10,2.2028870404962716e-10,4.638416192719226e-09,-2.3990145454198367e-10,-1.8779895066299605e-10,1.0833781640369532e-07,-4.7038376771805573e-07,-1.4321764346519855e-07,-7.151919403484832e-10,1.1342077435243153e-09,2.733825230464725e-10,-4.703837677173686e-07,2.243509833646555e-06,6.137697590312145e-07,1.5481151068247046e-09,3.9699438755498005e-10,2.2028870599043773e-10,-1.432176434665322e-07,6.137697590392621e-07,3.5279428079423636e-07,1.0017015983209936e-09,5.931268412176338e-10,4.638416192906467e-09,-7.151919345892192e-10,1.5481150790687138e-09,1.0017015914917042e-09,1.6663486063197325e-08,0.0,0.0,0.0,0.0,0.0,0.0,0.0,0.0,0.0,0.0,0.0,0.0,0.0,0.0,0.0,0.0,0.0,0.0,0.0,0.0,0.0,0.0,0.0,0.0,0.0,0.0,0.0,0.0,0.0,0.0,0.0,0.0,0.0,0.0,0.0,0.0,0.0,0.0,0.0,0.0,0.0,0.0
1776753651661470652,19,1776753651661470652,camera_init,body,-1.0676890705967994,0.13122714629223362,-7.332748357912376e-05,-4.753032751528905e-06,-1.305554426360429e-05,0.026947591235320548,0.9996368476269647,7.122532004428606e-10,8.673858433317888e-11,-1.2587293974263218e-10,4.173924736271369e-10,-4.43607161717361e-11,5.433968519374144e-10,8.673858432388698e-11,1.7437331231514469e-09,-2.353551103699823e-10,3.426822611909238e-10,2.8610648758928244e-10,4.913133146719877e-09,-1.2587293988300876e-10,-2.3535511162268216e-10,8.433157437550808e-08,-3.7308231048615045e-07,-1.5064996650188354e-07,-7.857064122636887e-10,4.1739247432565456e-10,3.4268226719003466e-10,-3.7308231048712533e-07,1.786933697380529e-06,7.385968726432592e-07,1.5479909866607676e-09,-4.43607159577544e-11,2.8610648946411707e-10,-1.5064996651025339e-07,7.385968726802391e-07,8.486349740878941e-07,1.0170514516373027e-09,5.433968519323967e-10,4.913133146873665e-09,-7.857064077928804e-10,1.547990965311729e-09,1.0170514450076734e-09,1.743208397621585e-08,0.0,0.0,0.0,0.0,0.0,0.0,0.0,0.0,0.0,0.0,0.0,0.0,0.0,0.0,0.0,0.0,0.0,0.0,0.0,0.0,0.0,0.0,0.0,0.0,0.0,0.0,0.0,0.0,0.0,0.0,0.0,0.0,0.0,0.0,0.0,0.0,0.0,0.0,0.0,0.0,0.0,0.0
1776753651761470556,20,1776753651761470556,camera_init,body,-1.1125628095213713,0.18028361458395525,-0.00026264130970775487,2.8907761562455425e-05,-3.8469681618994815e-05,0.02742371836536877,0.9996238979513457,7.302432178437073e-10,9.776217586143167e-11,-1.7326575202555155e-10,4.4910811916154224e-10,-2.749343838147089e-11,5.405415186028196e-10,9.776217585826203e-11,1.8620008138023033e-09,-1.9271299011991222e-10,3.0234422991973705e-10,9.884563503615617e-10,5.088096105986397e-09,-1.7326575210447174e-10,-1.927129907628533e-10,4.345869695539787e-08,-1.8539254653312213e-07,-9.884274666038938e-08,-6.994696506019314e-10,4.4910811955798675e-10,3.023442331256509e-10,-1.8539254653358837e-07,9.687265379355697e-07,5.918670719117584e-07,1.5242558408644926e-09,-2.749343819660595e-11,9.884563518186502e-10,-9.884274666281224e-08,5.918670719227828e-07,8.136909519294758e-07,2.8764716634035364e-09,5.405415185956645e-10,5.088096106278084e-09,-6.994696484268854e-10,1.5242558297972614e-09,2.8764716584783244e-09,1.760137339270417e-08,0.0,0.0,0.0,0.0,0.0,0.0,0.0,0.0,0.0,0.0,0.0,0.0,0.0,0.0,0.0,0.0,0.0,0.0,0.0,0.0,0.0,0.0,0.0,0.0,0.0,0.0,0.0,0.0,0.0,0.0,0.0,0.0,0.0,0.0,0.0,0.0,0.0,0.0,0.0,0.0,0.0,0.0
1776753651861470699,21,1776753651861470699,camera_init,body,-1.1676228799048565,0.24119736039642037,-0.00014516531744400432,3.450892018276499e-05,-1.0177391063388047e-05,0.029033568978695544,0.9995784364310352,7.156841497744666e-10,1.4670249777460024e-10,-1.9224555589603077e-10,8.723372242872448e-10,9.76734951248133e-10,6.325835541673709e-10,1.4670249779208686e-10,1.942038814877205e-09,-1.3593379820086147e-10,3.4131161748887747e-10,1.1763376918007146e-10,5.1857937098810534e-09,-1.922455559673081e-10,-1.3593379885297505e-10,4.3980165474093516e-08,-1.7663773497790524e-07,-1.1559745019019781e-07,-1.258057936284665e-10,8.72337225274422e-10,3.4131162152901287e-10,-1.7663773497939821e-07,9.995149680518007e-07,4.1242884550315196e-07,-2.401562719551111e-10,9.767349513945638e-10,1.1763377057328184e-10,-1.155974501907898e-07,4.124288455092218e-07,3.512398753977993e-07,-2.9871995880576193e-10,6.325835541673229e-10,5.185793709726589e-09,-1.2580579142013745e-10,-2.401562856818789e-10,-2.9871996354102186e-10,1.755591170615813e-08,0.0,0.0,0.0,0.0,0.0,0.0,0.0,0.0,0.0,0.0,0.0,0.0,0.0,0.0,0.0,0.0,0.0,0.0,0.0,0.0,0.0,0.0,0.0,0.0,0.0,0.0,0.0,0.0,0.0,0.0,0.0,0.0,0.0,0.0,0.0,0.0,0.0,0.0,0.0,0.0,0.0,0.0
1776753651961470604,22,1776753651961470604,camera_init,body,-1.2155602865893602,0.2930549860872337,-2.1130587078426464e-05,-5.800443832570824e-06,-7.096803841300605e-06,0.030602134011581503,0.9995316449767483,6.285559929394271e-10,2.1769054783710604e-10,-9.349609217933509e-11,3.203688627334478e-10,9.591766836258975e-11,9.03726943519767e-10,2.1769054782895418e-10,2.046380990700157e-09,-2.9691248468675406e-10,6.212951041859003e-10,6.298977153896045e-10,5.317942518553025e-09,-9.349609226157176e-11,-2.969124854324524e-10,6.069926674855922e-08,-2.408225093052885e-07,-1.7671300191808446e-07,-6.908500254238685e-10,3.2036886319167276e-10,6.212951079412209e-10,-2.4082250930617695e-07,1.1707185072727094e-06,6.574029877861849e-07,1.3911859245782284e-09,9.591766862908749e-11,6.298977172786534e-10,-1.767130019194191e-07,6.574029877935926e-07,5.744295845218823e-07,1.7839539929586338e-09,9.03726943553195e-10,5.3179425186730315e-09,-6.908500229017922e-10,1.3911859114672205e-09,1.7839539864768728e-09,1.7538102920268403e-08,0.0,0.0,0.0,0.0,0.0,0.0,0.0,0.0,0.0,0.0,0.0,0.0,0.0,0.0,0.0,0.0,0.0,0.0,0.0,0.0,0.0,0.0,0.0,0.0,0.0,0.0,0.0,0.0,0.0,0.0,0.0,0.0,0.0,0.0,0.0,0.0,0.0,0.0,0.0,0.0,0.0,0.0
1776753652061470747,23,1776753652061470747,camera_init,body,-1.257988572248026,0.3397140141599011,-5.6965924998722455e-06,-3.3555094717202372e-06,-2.0504366435550073e-06,0.031681624407659294,0.9994980113334014,5.954753776253293e-10,2.528165867763091e-10,-2.1266915117416302e-10,4.196166083370872e-10,-2.4145954636542668e-11,9.751657545563353e-10,2.5281658678003085e-10,2.1706571731169378e-09,-1.9760916045304251e-10,-2.507357186996587e-10,3.59997912723165e-10,5.5121303910881275e-09,-2.1266915125927282e-10,-1.9760916090779798e-10,3.9271753813846315e-08,-1.1573347704176942e-07,-9.033427447132665e-09,-3.0772958722699277e-10,4.196166086798907e-10,-2.507357167897053e-10,-1.1573347704208129e-07,4.971531487013119e-07,7.852124086504483e-08,-1.2314023891396823e-09,-2.4145954632413382e-11,3.5999791281983265e-10,-9.03342744755221e-09,7.852124086678527e-08,1.6365538030261623e-07,1.4062099219937351e-09,9.751657545905541e-10,5.51213039128429e-09,-3.0772958576397434e-10,-1.231402395220407e-09,1.4062099218082895e-09,1.7770981211525082e-08,0.0,0.0,0.0,0.0,0.0,0.0,0.0,0.0,0.0,0.0,0.0,0.0,0.0,0.0,0.0,0.0,0.0,0.0,0.0,0.0,0.0,0.0,0.0,0.0,0.0,0.0,0.0,0.0,0.0,0.0,0.0,0.0,0.0,0.0,0.0,0.0,0.0,0.0,0.0,0.0,0.0,0.0
1776753652161470652,24,1776753652161470652,camera_init,body,-1.3174133487246777,0.37927068928223034,8.005277590404617e-05,-2.792209117702519e-05,9.075177834480015e-06,0.03342667810726828,0.9994411720199968,7.120855631493825e-10,2.2403978419940793e-10,6.425120621873806e-11,-9.244169199282081e-11,2.2256010507243213e-10,7.993343712084784e-10,2.240397842043886e-10,2.4122978333027557e-09,-2.6322005726278677e-10,3.58832328463478e-10,9.879812872201101e-10,6.06087023937022e-09,6.425120604040242e-11,-2.6322005854581096e-10,7.590507307060238e-08,-3.0252513224727186e-07,-7.204325724559267e-08,-8.286019627223632e-10,-9.244169111751814e-11,3.5883233449827014e-10,-3.0252513224799385e-07,1.4139608485330025e-06,3.16830800408639e-07,1.164125562485149e-09,2.2256010524109756e-10,9.8798128845967e-10,-7.204325724782193e-08,3.1683080041879305e-07,3.084173932073099e-07,2.6567346129621915e-09,7.993343712225851e-10,6.0608702392571585e-09,-8.28601958640192e-10,1.1641255433628566e-09,2.6567346090962364e-09,1.9191911705285423e-08,0.0,0.0,0.0,0.0,0.0,0.0,0.0,0.0,0.0,0.0,0.0,0.0,0.0,0.0,0.0,0.0,0.0,0.0,0.0,0.0,0.0,0.0,0.0,0.0,0.0,0.0,0.0,0.0,0.0,0.0,0.0,0.0,0.0,0.0,0.0,0.0,0.0,0.0,0.0,0.0,0.0,0.0
1776753652261470556,25,1776753652261470556,camera_init,body,-1.356708030725588,0.4277190384229745,-3.6592398920912584e-05,5.880992637740423e-07,-8.911575394223695e-06,0.03365916304831973,0.9994333697966653,6.96796346391236e-10,2.1709785115062283e-10,1.9154223949421513e-11,2.2362964183349177e-10,-6.755511557869198e-10,7.737903083270636e-10,2.1709785116277106e-10,2.569471365196233e-09,-8.081643570295855e-10,2.2788017856344236e-09,2.021675698141147e-09,6.302518279008502e-09,1.9154222374352995e-11,-8.081643578841125e-10,8.699060113127345e-08,-3.715739693160445e-07,-1.507585393917032e-07,-2.0436713637124475e-09,2.236296481914468e-10,2.2788017897466626e-09,-3.7157396931471984e-07,1.7597000966666753e-06,5.859905677571617e-07,5.429471707874854e-09,-6.755511517710307e-10,2.0216756993523117e-09,-1.5075853939249106e-07,5.859905677633143e-07,4.2746483315755697e-07,6.076442855564575e-09,7.737903083842665e-10,6.302518279153814e-09,-2.04367136020484e-09,5.429471690916173e-09,6.076442850483023e-09,1.9547620842911214e-08,0.0,0.0,0.0,0.0,0.0,0.0,0.0,0.0,0.0,0.0,0.0,0.0,0.0,0.0,0.0,0.0,0.0,0.0,0.0,0.0,0.0,0.0,0.0,0.0,0.0,0.0,0.0,0.0,0.0,0.0,0.0,0.0,0.0,0.0,0.0,0.0,0.0,0.0,0.0,0.0,0.0,0.0
1776753652361470699,26,1776753652361470699,camera_init,body,-1.393945111372526,0.4729457538195159,-7.84404507562371e-05,4.958350526584436e-07,-1.4492086991349721e-05,0.0330487858989699,0.9994537395699366,8.148805128325369e-10,2.649195384030183e-10,-9.197026642038862e-11,3.675799194950163e-10,-1.2625875659668882e-10,7.665027647448441e-10,2.649195383955617e-10,2.7270380186533868e-09,-6.180655311043887e-10,1.4170522363658364e-09,3.8154951165333705e-10,6.561389837885729e-09,-9.19702664848169e-11,-6.180655316187922e-10,4.507017123359401e-08,-1.9002155516754971e-07,-6.791207515267794e-08,-1.5140876602719489e-09,3.675799198332736e-10,1.4170522389529927e-09,-1.9002155516786979e-07,9.557491966651667e-07,2.635865018185203e-07,3.483171528397144e-09,-1.2625875658948904e-10,3.815495116044143e-10,-6.791207515553017e-08,2.635865018325982e-07,7.605320155759178e-07,1.420281662300467e-09,7.665027647299549e-10,6.561389837871768e-09,-1.5140876586851352e-09,3.4831715201454037e-09,1.420281662429044e-09,2.0011519610139573e-08,0.0,0.0,0.0,0.0,0.0,0.0,0.0,0.0,0.0,0.0,0.0,0.0,0.0,0.0,0.0,0.0,0.0,0.0,0.0,0.0,0.0,0.0,0.0,0.0,0.0,0.0,0.0,0.0,0.0,0.0,0.0,0.0,0.0,0.0,0.0,0.0,0.0,0.0,0.0,0.0,0.0,0.0
1776753652461470604,27,1776753652461470604,camera_init,body,-1.4305976642060911,0.5125693956392509,-7.378560010010859e-05,-1.4596797386760405e-06,-1.2700723051301702e-05,0.03325821381817258,0.9994467925058239,7.774655577465791e-10,3.263922971112176e-10,-1.829714566383508e-10,4.027518322344185e-10,-7.186702907209928e-11,9.519377957122622e-10,3.26392297092672e-10,2.933394691139303e-09,-1.727105914523007e-11,1.691700514183393e-09,-1.0957545508723305e-09,6.814717439847809e-09,-1.82971456718198e-10,-1.7271059717630576e-11,1.3571937446599984e-07,-2.0969336795011948e-07,-2.0259447032640288e-07,2.956261200408398e-10,4.0275183271634715e-10,1.6917005176784627e-09,-2.0969336794807726e-07,1.1630391682029604e-06,6.670037160977038e-07,3.835863372600661e-09,-7.186702891889219e-11,-1.095754549872567e-09,-2.025944703306831e-07,6.670037161272802e-07,1.865730326526624e-06,-1.5320023334446037e-09,9.51937795710932e-10,6.814717439789375e-09,2.9562612172244835e-10,3.835863362406063e-09,-1.53200233648669e-09,2.0140084808439804e-08,0.0,0.0,0.0,0.0,0.0,0.0,0.0,0.0,0.0,0.0,0.0,0.0,0.0,0.0,0.0,0.0,0.0,0.0,0.0,0.0,0.0,0.0,0.0,0.0,0.0,0.0,0.0,0.0,0.0,0.0,0.0,0.0,0.0,0.0,0.0,0.0,0.0,0.0,0.0,0.0,0.0,0.0
1776753652561470747,28,1776753652561470747,camera_init,body,-1.4638963899898059,0.5652443908619365,-2.8897601385264962e-05,-1.798608269284577e-06,-2.497187168968852e-06,0.0346908665010263,0.9993980907385864,7.157721108595511e-10,3.9431195686097686e-10,1.8555421675285285e-10,2.181733355030548e-10,-1.1023941943021372e-09,1.1851072196729984e-09,3.943119568890326e-10,3.2024126201120697e-09,8.00468559938681e-10,1.0266121804080075e-09,1.8504069896778058e-10,7.251225651387576e-09,1.8555422739100865e-10,8.004685603334356e-10,4.1982951122959315e-07,-2.2022962873050714e-07,-4.791769841525419e-07,6.607974471645486e-10,2.181733301391591e-10,1.0266121831239128e-09,-2.20229628722488e-07,1.4580497049761823e-06,3.9928569846411596e-07,3.008679367612204e-09,-1.102394218509386e-09,1.8504069032001094e-10,-4.79176984154806e-07,3.992856984919054e-07,1.72919253414931e-06,1.0261254104916626e-09,1.185107219728254e-09,7.251225651365566e-09,6.607974483486039e-10,3.0086793546346634e-09,1.0261254099116311e-09,2.0778988244060195e-08,0.0,0.0,0.0,0.0,0.0,0.0,0.0,0.0,0.0,0.0,0.0,0.0,0.0,0.0,0.0,0.0,0.0,0.0,0.0,0.0,0.0,0.0,0.0,0.0,0.0,0.0,0.0,0.0,0.0,0.0,0.0,0.0,0.0,0.0,0.0,0.0,0.0,0.0,0.0,0.0,0.0,0.0
1776753652661470652,29,1776753652661470652,camera_init,body,-1.4888564621188711,0.6080201783334156,-0.0001501759217930755,3.265093427296688e-05,-1.2315849938359361e-05,0.03518105039757271,0.9993809546289922,7.223750404748426e-10,4.289104835584983e-10,-4.1304228941426764e-10,1.0410688325762763e-10,3.8590393652952844e-10,1.2800004161152541e-09,4.2891048356218516e-10,3.5649629213821248e-09,-6.547750588726613e-10,6.897615820004357e-10,1.839920112172232e-09,7.957428382892271e-09,-4.130422896166809e-10,-6.547750600818973e-10,3.1775793584358736e-07,-4.5513471351917987e-07,-3.6307914939755997e-07,-1.859008429421229e-09,1.0410688452339926e-10,6.897615898253261e-10,-4.5513471351329595e-07,2.660708766330112e-06,5.965304280462016e-07,2.75201884034785e-09,3.8590393672614596e-10,1.8399201133791547e-09,-3.6307914940081904e-07,5.965304280731563e-07,1.25694861895888e-06,4.478898903089503e-09,1.2800004161296984e-09,7.957428383059416e-09,-1.8590084260405443e-09,2.7520188184872532e-09,4.47889889972117e-09,2.2277441419045245e-08,0.0,0.0,0.0,0.0,0.0,0.0,0.0,0.0,0.0,0.0,0.0,0.0,0.0,0.0,0.0,0.0,0.0,0.0,0.0,0.0,0.0,0.0,0.0,0.0,0.0,0.0,0.0,0.0,0.0,0.0,0.0,0.0,0.0,0.0,0.0,0.0,0.0,0.0,0.0,0.0,0.0,0.0
1776753652761470556,30,1776753652761470556,camera_init,body,-1.5222860735465857,0.669401073261644,-7.19139689844693e-05,5.801847474864178e-06,-1.0573400529267097e-05,0.03720832107640637,0.9993075305916649,8.820038439500701e-10,4.4851712357604795e-10,-4.306847169845038e-10,-3.026850888671846e-10,-5.895224349983697e-10,1.1018063933107476e-09,4.485171235865401e-10,3.669760413484277e-09,2.2287394240809032e-10,1.804406403743255e-09,-1.3301518070051326e-09,7.953484664915038e-09,-4.306847172274973e-10,2.22873941343507e-10,1.9172346672082885e-07,-5.106267036427194e-07,-4.849780237198192e-07,7.556520058094551e-10,-3.0268508740664833e-10,1.8044064096988495e-09,-5.106267036345327e-07,2.352890908381826e-06,1.1026639377493838e-06,5.575849987363152e-09,-5.895224347190606e-10,-1.3301518051406808e-09,-4.849780237222286e-07,1.1026639377745741e-06,1.4934736095015173e-06,-1.9736323109461243e-09,1.1018063933074819e-09,7.95348466485455e-09,7.556520086918143e-10,5.57584997268734e-09,-1.9736323166179595e-09,2.1843564164202155e-08,0.0,0.0,0.0,0.0,0.0,0.0,0.0,0.0,0.0,0.0,0.0,0.0,0.0,0.0,0.0,0.0,0.0,0.0,0.0,0.0,0.0,0.0,0.0,0.0,0.0,0.0,0.0,0.0,0.0,0.0,0.0,0.0,0.0,0.0,0.0,0.0,0.0,0.0,0.0,0.0,0.0,0.0
1776753652861470699,31,1776753652861470699,camera_init,body,-1.5538620301105088,0.7231092566151976,-8.095373392716939e-05,-1.1718293563154644e-06,-1.9612137374563833e-05,0.03565632054526061,0.9993641110321899,9.472520921946156e-10,6.121057952505749e-10,-1.629028095655565e-11,1.6615497215030719e-10,-5.055113941160834e-10,1.5442113771360645e-09,6.121057952580143e-10,4.407397297993766e-09,8.884923665809559e-10,1.902244932159465e-09,-9.047082659383751e-11,9.254065593707186e-09,-1.629028129495741e-11,8.884923646104329e-10,5.174573152983436e-07,-8.793510715650257e-07,-7.011260919775133e-07,1.482300787418857e-09,1.6615497327895212e-10,1.902244938833661e-09,-8.793510715568529e-07,2.6695330096454054e-06,1.3106081949661083e-06,4.692476491549585e-09,-5.055113937484711e-10,-9.047082446530327e-11,-7.011260919846636e-07,1.3106081949992762e-06,2.0213886436516295e-06,-8.87025568350986e-10,1.544211377139729e-09,9.254065593757482e-09,1.4823007925986925e-09,4.6924764740529006e-09,-8.870255739510831e-10,2.4491064156291685e-08,0.0,0.0,0.0,0.0,0.0,0.0,0.0,0.0,0.0,0.0,0.0,0.0,0.0,0.0,0.0,0.0,0.0,0.0,0.0,0.0,0.0,0.0,0.0,0.0,0.0,0.0,0.0,0.0,0.0,0.0,0.0,0.0,0.0,0.0,0.0,0.0,0.0,0.0,0.0,0.0,0.0,0.0
1776753652961470604,32,1776753652961470604,camera_init,body,-1.5816772208216825,0.7870572798606928,-0.0001028782436047146,9.637835995239169e-07,-2.0223929156559414e-05,0.03615910912885765,0.9993460453802112,1.240852565948078e-09,5.305218052020626e-10,-3.794633595627726e-10,3.3181276220325823e-10,-3.1712669368503965e-10,1.0596928527478359e-09,5.305218052154553e-10,4.7897711151530654e-09,-3.1158735915370426e-10,4.4472269974420825e-09,-2.6916023810141676e-10,9.846346232755706e-09,-3.794633595754278e-10,-3.115873593120106e-10,2.219909403770672e-07,-1.8851269927579285e-07,-4.940488367544474e-07,3.1426662675918295e-11,3.318127625086467e-10,4.447227000191763e-09,-1.885126992720422e-07,1.133417688685534e-06,3.8514848798251644e-07,9.09904708304423e-09,-3.171266937298265e-10,-2.691602385118241e-10,-4.940488367557364e-07,3.8514848799763175e-07,1.94204072921636e-06,-1.4027667579023938e-09,1.0596928527519767e-09,9.846346232449062e-09,3.142666307262378e-11,9.099047075595394e-09,-1.4027667568929973e-09,2.5817826939751454e-08,0.0,0.0,0.0,0.0,0.0,0.0,0.0,0.0,0.0,0.0,0.0,0.0,0.0,0.0,0.0,0.0,0.0,0.0,0.0,0.0,0.0,0.0,0.0,0.0,0.0,0.0,0.0,0.0,0.0,0.0,0.0,0.0,0.0,0.0,0.0,0.0,0.0,0.0,0.0,0.0,0.0,0.0
1776753653061470747,33,1776753653061470747,camera_init,body,-1.6066800438145288,0.8429017382725212,-6.390050472054931e-05,-6.440145573147051e-09,-8.62441815921028e-06,0.03771553437662781,0.9992885160914751,1.3498365644231932e-09,5.8951870083955e-10,-9.174248852096079e-10,9.883096514546324e-10,-1.761423704871448e-09,1.053158902654908e-09,5.895187008285682e-10,5.446808609978443e-09,2.242039525269319e-09,1.6403596234435515e-09,2.9662401556251437e-09,1.089145134926974e-08,-9.174248858127908e-10,2.242039523011621e-09,3.58466436330341e-07,-6.815763290131692e-07,-6.313958138148181e-08,5.9455389950967085e-09,9.883096538889323e-10,1.6403596313789797e-09,-6.815763290078933e-07,2.3250402252506704e-06,1.0270289164507498e-07,1.4617889188442537e-09,-1.7614237105670034e-09,2.9662401534569908e-09,-6.313958139026787e-08,1.0270289167380671e-07,1.8117161562735469e-06,6.784397332364134e-09,1.053158902635671e-09,1.0891451349195638e-08,5.945539000891989e-09,1.461788898914164e-09,6.78439733398125e-09,2.7734558036242172e-08,0.0,0.0,0.0,0.0,0.0,0.0,0.0,0.0,0.0,0.0,0.0,0.0,0.0,0.0,0.0,0.0,0.0,0.0,0.0,0.0,0.0,0.0,0.0,0.0,0.0,0.0,0.0,0.0,0.0,0.0,0.0,0.0,0.0,0.0,0.0,0.0,0.0,0.0,0.0,0.0,0.0,0.0
1776753653161470652,34,1776753653161470652,camera_init,body,-1.6336868460720886,0.9062578379673152,-6.953107433223248e-05,1.4412521301244832e-06,-9.733987789542964e-06,0.038601772352145104,0.9992546737816357,1.5625604492762717e-09,6.307093197368941e-10,-7.477828991902242e-10,1.070711284388659e-09,3.1859108977650896e-10,9.378045992548828e-10,6.307093197318445e-10,5.8519945171707326e-09,1.8381574348563237e-09,2.6313063797346546e-10,2.0046351289196883e-09,1.1585033756924905e-08,-7.477828995268665e-10,1.8381574304226472e-09,6.236968528911435e-07,-1.5525900553889721e-06,-1.019968704757605e-07,4.565787423768584e-09,1.0707112856007699e-09,2.6313065436927046e-10,-1.5525900553869966e-06,5.728169686208584e-06,7.816186852048155e-07,-2.217333447159674e-10,3.185910899293984e-10,2.0046351310207535e-09,-1.0199687047965339e-07,7.816186852199176e-07,6.302033677124627e-07,4.414684663308962e-09,9.37804599231629e-10,1.158503375714293e-08,4.565787434917336e-09,-2.2173338555849653e-10,4.414684658146581e-09,2.9238944685180777e-08,0.0,0.0,0.0,0.0,0.0,0.0,0.0,0.0,0.0,0.0,0.0,0.0,0.0,0.0,0.0,0.0,0.0,0.0,0.0,0.0,0.0,0.0,0.0,0.0,0.0,0.0,0.0,0.0,0.0,0.0,0.0,0.0,0.0,0.0,0.0,0.0,0.0,0.0,0.0,0.0,0.0,0.0
1776753653261470556,35,1776753653261470556,camera_init,body,-1.6627345772275415,0.9712772445331134,6.018681182171538e-06,-6.803872289125128e-06,2.9301714990286432e-06,0.03850851714764536,0.9992582719458512,1.7203920964420968e-09,6.833111805188217e-10,-1.1840440969580092e-09,-5.392192394762413e-10,6.014573264638984e-10,8.720072326156175e-10,6.83311180542739e-10,6.368099200310649e-09,8.17451358916499e-10,4.500882911259052e-09,-4.974182223888927e-10,1.2280057084669598e-08,-1.1840440969822797e-09,8.174513586186028e-10,1.8934513837691789e-07,-1.6746748749860975e-07,-1.8565502676172232e-07,2.700630183444698e-09,-5.392192392291724e-10,4.500882914646019e-09,-1.674674874954626e-07,1.413690883368249e-06,-9.441154194271097e-09,1.0977309494671733e-08,6.014573264260996e-10,-4.974182230149096e-10,-1.8565502676343203e-07,-9.441154181533627e-09,1.1462482560625153e-06,-1.625009794806465e-09,8.720072326322736e-10,1.2280057084621895e-08,2.700630184188584e-09,1.0977309486352217e-08,-1.6250097932502752e-09,3.0301332970274455e-08,0.0,0.0,0.0,0.0,0.0,0.0,0.0,0.0,0.0,0.0,0.0,0.0,0.0,0.0,0.0,0.0,0.0,0.0,0.0,0.0,0.0,0.0,0.0,0.0,0.0,0.0,0.0,0.0,0.0,0.0,0.0,0.0,0.0,0.0,0.0,0.0,0.0,0.0,0.0,0.0,0.0,0.0
1776753653361470699,36,1776753653361470699,camera_init,body,-1.6900411759532656,1.0328056659441425,-2.4911214809591758e-05,-1.4392664817824473e-06,-6.194567559888911e-07,0.04197112349040402,0.9991188241598177,1.9448195748812485e-09,7.524985928751176e-10,-1.475071110200374e-09,-5.416103949422677e-10,3.7750360541706593e-10,7.150247833321235e-10,7.524985928973441e-10,6.785953312529595e-09,-6.355238380621441e-10,4.02918643108903e-09,6.316452737692058e-10,1.2990693748632011e-08,-1.4750711100632532e-09,-6.355238356070591e-10,1.2448253642572427e-06,7.065716345584355e-07,-1.0832920501678883e-06,2.7431376144999577e-10,-5.4161039460362e-10,4.029186436708035e-09,7.065716345647007e-07,1.7477701692837102e-06,-1.1881105910376723e-06,9.355299532035562e-09,3.775036051541681e-10,6.316452693526106e-10,-1.0832920501626297e-06,-1.1881105910144102e-06,2.888447838396222e-06,2.7308454303487605e-10,7.15024783438843e-10,1.2990693748377688e-08,2.743137553932685e-10,9.355299518080184e-09,2.730845539008728e-10,3.207973133292422e-08,0.0,0.0,0.0,0.0,0.0,0.0,0.0,0.0,0.0,0.0,0.0,0.0,0.0,0.0,0.0,0.0,0.0,0.0,0.0,0.0,0.0,0.0,0.0,0.0,0.0,0.0,0.0,0.0,0.0,0.0,0.0,0.0,0.0,0.0,0.0,0.0,0.0,0.0,0.0,0.0,0.0,0.0
1776753653461470604,37,1776753653461470604,camera_init,body,-1.7168997200495155,1.0978560467741725,-6.493929440471259e-05,3.0089146432412748e-06,-6.359873993494735e-06,0.04166215700932928,0.9991317553875594,2.138726756086625e-09,8.37615735530657e-10,-3.989680075567721e-10,-3.8222221123537364e-11,-3.16238000546605e-10,6.280403284213984e-10,8.376157355255816e-10,7.409053037971472e-09,1.837435115424146e-09,1.1027658517835857e-09,2.5472497831013616e-09,1.3794738111661102e-08,-3.989680073592182e-10,1.8374351196827204e-09,2.090983004809071e-06,1.4304546628344486e-06,-1.7832553537469868e-06,8.227011343082601e-10,-3.8222220481810645e-11,1.1027658655187543e-09,1.4304546628562088e-06,4.467370417519895e-06,-3.336763189298253e-06,2.2317450529356197e-09,-3.1623800098790917e-10,2.5472497733345093e-09,-1.7832553537357397e-06,-3.3367631892127825e-06,5.70537280274928e-06,4.700359436428054e-09,6.280403283582052e-10,1.3794738111634669e-08,8.227011239851234e-10,2.2317450196528745e-09,4.7003594599519526e-09,3.347047267049859e-08,0.0,0.0,0.0,0.0,0.0,0.0,0.0,0.0,0.0,0.0,0.0,0.0,0.0,0.0,0.0,0.0,0.0,0.0,0.0,0.0,0.0,0.0,0.0,0.0,0.0,0.0,0.0,0.0,0.0,0.0,0.0,0.0,0.0,0.0,0.0,0.0,0.0,0.0,0.0,0.0,0.0,0.0
1776753653561470747,38,1776753653561470747,camera_init,body,-1.7373436408995189,1.1637814406368328,-3.275050634365779e-05,-5.723278286582483e-06,-8.564160808084591e-06,0.042409237616287385,0.9991003235204673,2.3572667695175324e-09,8.002102068408571e-10,-1.2382805740495707e-09,-8.42603346202766e-10,3.812748290093268e-10,1.0775922645695437e-10,8.002102068621958e-10,7.827045091525204e-09,1.573617550249569e-10,4.166599696892296e-09,-2.931343009786303e-10,1.4420193536777148e-08,-1.2382805740171533e-09,1.573617602389203e-10,1.7614308297789896e-06,2.362457824822041e-06,-4.253057462473127e-06,1.3597646675131762e-09,-8.426033461033984e-10,4.166599713108106e-09,2.362457824878499e-06,6.696500273521666e-06,-6.3924385167780315e-06,9.16835999698756e-09,3.812748289069417e-10,-2.9313431501560734e-10,-4.253057462471667e-06,-6.392438516621055e-06,1.1758955715109142e-05,-1.3952384696917865e-09,1.0775922643078073e-10,1.4420193536928777e-08,1.359764654913719e-09,9.16835995782185e-09,-1.3952384357346724e-09,3.495838961927227e-08,0.0,0.0,0.0,0.0,0.0,0.0,0.0,0.0,0.0,0.0,0.0,0.0,0.0,0.0,0.0,0.0,0.0,0.0,0.0,0.0,0.0,0.0,0.0,0.0,0.0,0.0,0.0,0.0,0.0,0.0,0.0,0.0,0.0,0.0,0.0,0.0,0.0,0.0,0.0,0.0,0.0,0.0
1776753653661470652,39,1776753653661470652,camera_init,body,-1.754996903975294,1.2352633766445895,4.491110504772184e-05,-1.885210409787942e-05,1.931590571068433e-06,0.04271094459341377,0.9990874710718797,2.6835315046017387e-09,6.01411133652285e-10,-8.479138891618487e-10,1.5101453409808568e-09,-2.363744480686491e-09,-9.821800715311313e-10,6.014111336289499e-10,8.290337824200732e-09,1.328552155254549e-09,5.492661077914798e-09,-2.3926355176039667e-09,1.5228193402633857e-08,-8.47913889104049e-10,1.328552154014012e-09,3.5527427567714077e-07,-4.880044603631953e-07,-2.739882149156596e-07,2.9250885020078645e-09,1.5101453406074874e-09,5.4926610855655174e-09,-4.880044603553256e-07,3.439886657215592e-06,-1.6440467762634265e-06,1.2046597168154877e-08,-2.3637444805451423e-09,-2.392635520242097e-09,-2.739882149243993e-07,-1.6440467762260486e-06,4.405011113027107e-06,-2.8400037941952225e-09,-9.8218007158216e-10,1.5228193402582962e-08,2.9250885050682413e-09,1.2046597149145026e-08,-2.840003787610822e-09,3.7665606009513386e-08,0.0,0.0,0.0,0.0,0.0,0.0,0.0,0.0,0.0,0.0,0.0,0.0,0.0,0.0,0.0,0.0,0.0,0.0,0.0,0.0,0.0,0.0,0.0,0.0,0.0,0.0,0.0,0.0,0.0,0.0,0.0,0.0,0.0,0.0,0.0,0.0,0.0,0.0,0.0,0.0,0.0,0.0
1776753653761470556,40,1776753653761470556,camera_init,body,-1.7741614023126189,1.2990747802199136,3.470725473100002e-05,-1.6692783186144246e-05,8.295470666482366e-08,0.04720277934323867,0.9988853274243329,2.7626110893537188e-09,4.964241714190438e-10,-9.272007039443004e-10,2.744187018606023e-09,-2.8023531772962357e-09,-1.5334405895367586e-09,4.964241713971858e-10,8.852987439061076e-09,2.93154963006008e-09,1.4552900557133028e-09,7.961175681259786e-10,1.5886460499303997e-08,-9.272007038046786e-10,2.93154962835875e-09,9.107294496926146e-07,-6.617663977436437e-07,-8.584797213046051e-07,5.447012797046606e-09,2.7441870180467496e-09,1.4552900618439156e-09,-6.617663977337647e-07,2.6057497304087096e-06,-3.4670327998203405e-07,-1.2488020075465109e-09,-2.802353177234826e-09,7.961175677446549e-10,-8.584797213109086e-07,-3.467032799614465e-07,2.90828505352418e-06,7.470537305079264e-09,-1.5334405895220645e-09,1.5886460499095363e-08,5.447012801175835e-09,-1.2488020224423496e-09,7.470537305983935e-09,3.89444110506384e-08,0.0,0.0,0.0,0.0,0.0,0.0,0.0,0.0,0.0,0.0,0.0,0.0,0.0,0.0,0.0,0.0,0.0,0.0,0.0,0.0,0.0,0.0,0.0,0.0,0.0,0.0,0.0,0.0,0.0,0.0,0.0,0.0,0.0,0.0,0.0,0.0,0.0,0.0,0.0,0.0,0.0,0.0
1776753653861470699,41,1776753653861470699,camera_init,body,-1.7929243134827357,1.370594189865757,-3.492238146594252e-05,-4.4505150007228175e-06,-4.867035422767654e-06,0.04926569693035536,0.9987857082790436,3.1779843203088957e-09,6.972243607967149e-10,-4.737713443153006e-10,8.794048068440932e-11,-5.912633842164202e-09,-1.7939578933294617e-09,6.972243607818872e-10,1.0073700832534296e-08,6.337195883169264e-09,4.039031096592892e-09,3.4943148717629135e-09,1.7846671445985603e-08,-4.737713426363723e-10,6.337195882000154e-09,7.503014017591937e-07,-2.4165119875842e-07,-7.755411591569346e-07,8.126333769188086e-09,8.794047948012699e-11,4.0390311051899584e-09,-2.416511987473534e-07,2.721606581396618e-06,9.5661338992387e-07,1.0694676464306639e-08,-5.912633840350281e-09,3.4943148798622954e-09,-7.755411591555726e-07,9.566133899502416e-07,3.402316346373069e-06,1.7482042431146785e-08,-1.7939578933728862e-09,1.784667144596296e-08,8.126333770593231e-09,1.069467644678209e-08,1.7482042425683476e-08,4.361953263413197e-08,0.0,0.0,0.0,0.0,0.0,0.0,0.0,0.0,0.0,0.0,0.0,0.0,0.0,0.0,0.0,0.0,0.0,0.0,0.0,0.0,0.0,0.0,0.0,0.0,0.0,0.0,0.0,0.0,0.0,0.0,0.0,0.0,0.0,0.0,0.0,0.0,0.0,0.0,0.0,0.0,0.0,0.0
1776753653961470604,42,1776753653961470604,camera_init,body,-1.8083312517058279,1.4441529325252072,-0.00013093657435147795,-1.7622962135962135e-06,-3.226076068485307e-05,0.04800358836550328,0.9988471627131819,3.1227308440828316e-09,6.405048134978241e-10,1.437566911349446e-12,3.545571134765936e-10,9.736502490253508e-11,-2.093893618368995e-09,6.405048134896249e-10,1.041407349240106e-08,-6.707609462281612e-10,5.952198879363721e-09,4.2283281892504424e-09,1.8008856121765757e-08,1.4375665564481212e-12,-6.707609432115667e-10,2.846028967423159e-06,7.38833941035071e-07,-2.668560099667978e-06,-4.97562212793667e-09,3.5455711283826163e-10,5.952198885054618e-09,7.388339410533802e-07,2.0811818230290993e-06,-4.3735514159752335e-07,9.65065676734972e-09,9.73650253329337e-11,4.2283281856499966e-09,-2.668560099654348e-06,-4.3735514154995567e-07,6.243139046074505e-06,7.487507093092242e-09,-2.0938936183022946e-09,1.8008856121764943e-08,-4.9756221352950304e-09,9.650656753570234e-09,7.487507102020042e-09,4.357140920152093e-08,0.0,0.0,0.0,0.0,0.0,0.0,0.0,0.0,0.0,0.0,0.0,0.0,0.0,0.0,0.0,0.0,0.0,0.0,0.0,0.0,0.0,0.0,0.0,0.0,0.0,0.0,0.0,0.0,0.0,0.0,0.0,0.0,0.0,0.0,0.0,0.0,0.0,0.0,0.0,0.0,0.0,0.0
1776753654061470747,43,1776753654061470747,camera_init,body,-1.8162105072610983,1.5097730958736744,-2.8101196420387937e-05,-1.2487168084094248e-05,-1.3791466688752168e-05,0.04812961773164806,0.9988410982488022,3.2219796347669446e-09,5.91331825797658e-10,5.475758079964527e-10,-3.931355892596148e-10,-3.2875907949071926e-09,-2.8986188499930055e-09,5.913318257584062e-10,1.0350058498906464e-08,7.862581198890077e-10,1.8781366693187933e-09,-1.399360888959219e-09,1.7596070920384713e-08,5.47575810081981e-10,7.862581248520431e-10,8.485650951137243e-07,1.5196008823537428e-06,-1.4065035067623748e-06,2.272241449799486e-09,-3.93135590724148e-10,1.878136693333342e-09,1.5196008823635172e-06,4.850478160247558e-06,-2.721474257093641e-06,3.826355340714488e-09,-3.2875908093909266e-09,-1.3993608870878983e-09,-1.4065035067511842e-06,-2.7214742570404e-06,4.8665021597904535e-06,-1.849483710789402e-09,-2.898618849966074e-09,1.7596070920299286e-08,2.2722414394021525e-09,3.8263553083300626e-09,-1.8494836910406708e-09,4.3683457870551795e-08,0.0,0.0,0.0,0.0,0.0,0.0,0.0,0.0,0.0,0.0,0.0,0.0,0.0,0.0,0.0,0.0,0.0,0.0,0.0,0.0,0.0,0.0,0.0,0.0,0.0,0.0,0.0,0.0,0.0,0.0,0.0,0.0,0.0,0.0,0.0,0.0,0.0,0.0,0.0,0.0,0.0,0.0
1776753654161470652,44,1776753654161470652,camera_init,body,-1.8259092185650356,1.5808182063235423,-3.52528075618902e-05,-6.328416033160323e-06,-8.241452254955236e-06,0.04881262439795677,0.9988079533080486,3.6798328125893748e-09,5.652192034025235e-10,1.8346652416471351e-09,5.538301921535821e-09,-6.233027966100149e-09,-3.9078253686500276e-09,5.652192033897738e-10,1.0838279212085629e-08,-1.5471680994878292e-09,7.035700575407171e-09,3.4702733110409554e-09,1.8364585896966204e-08,1.8346652419158654e-09,-1.547168096727494e-09,6.49870872880659e-07,7.126157552567213e-07,-1.3570022157188408e-06,-6.7047544045319495e-09,5.538301927871588e-09,7.035700573861865e-09,7.126157552611683e-07,2.7364005811022234e-06,-2.102389383108881e-06,-2.6999422493069765e-09,-6.233027968434043e-09,3.4702733039673303e-09,-1.3570022157175826e-06,-2.102389383091881e-06,4.493587255056558e-06,1.7354336831989942e-08,-3.907825368597356e-09,1.836458589681649e-08,-6.704754408393806e-09,-2.6999422648363685e-09,1.735433684331975e-08,4.7137133512137785e-08,0.0,0.0,0.0,0.0,0.0,0.0,0.0,0.0,0.0,0.0,0.0,0.0,0.0,0.0,0.0,0.0,0.0,0.0,0.0,0.0,0.0,0.0,0.0,0.0,0.0,0.0,0.0,0.0,0.0,0.0,0.0,0.0,0.0,0.0,0.0,0.0,0.0,0.0,0.0,0.0,0.0,0.0
1776753654261470556,45,1776753654261470556,camera_init,body,-1.8267242215732307,1.6557511244392096,-2.3323575073492586e-05,-1.0138050868021528e-05,-4.608228193637123e-06,0.0480920494583329,0.9988429078963724,3.859776878327285e-09,5.879377557197277e-10,-8.108431306036898e-10,2.3214193747063549e-10,-1.3181107770366204e-09,-4.5488866068101426e-09,5.879377557258156e-10,1.1644965064818748e-08,-1.1420113608230746e-09,1.4729436047875671e-09,5.261031809129417e-09,1.9489405012635154e-08,-8.10843131442022e-10,-1.1420113572055268e-09,9.153150566176835e-07,1.6652473447312867e-06,-2.079863302759623e-06,-1.7505228538917189e-09,2.3214193478293377e-10,1.4729436165600545e-09,1.665247344741233e-06,5.135717667242333e-06,-4.437006075663066e-06,5.069767109513982e-10,-1.3181107749372492e-09,5.261031799781773e-09,-2.079863302754594e-06,-4.4370060756208e-06,6.663923058383847e-06,1.0550443122703394e-08,-4.548886606807564e-09,1.948940501273186e-08,-1.750522863251744e-09,5.069766806608846e-10,1.0550443146852025e-08,5.039322781761472e-08,0.0,0.0,0.0,0.0,0.0,0.0,0.0,0.0,0.0,0.0,0.0,0.0,0.0,0.0,0.0,0.0,0.0,0.0,0.0,0.0,0.0,0.0,0.0,0.0,0.0,0.0,0.0,0.0,0.0,0.0,0.0,0.0,0.0,0.0,0.0,0.0,0.0,0.0,0.0,0.0,0.0,0.0
1776753654361470699,46,1776753654361470699,camera_init,body,-1.8332952537555074,1.7314171724444007,4.2101050815870706e-05,-1.347302616150618e-05,4.763307825490151e-06,0.05114194981139214,0.9986913941580146,4.398930481105869e-09,7.017560722425973e-10,-4.808776321177752e-10,1.0724194792662193e-09,-1.1903811608524352e-09,-5.5476521062273046e-09,7.017560722688604e-10,1.2373105728318988e-08,4.54788961912332e-09,6.177054210515137e-09,-9.292543965944223e-09,2.0008155398493714e-08,-4.808776322781143e-10,4.547889619754491e-09,3.239610466318393e-07,1.9825169380328101e-07,5.036311971068482e-07,9.105138650761188e-09,1.072419478684493e-09,6.17705421264606e-09,1.9825169380209178e-07,1.067002455067923e-06,-8.85331579942254e-07,9.145976607906706e-09,-1.1903811606177012e-09,-9.292543966764508e-09,5.036311971097222e-07,-8.853315799343588e-07,3.121086850382688e-06,-1.2441095417582147e-08,-5.547652106163423e-09,2.000815539834666e-08,9.105138649064123e-09,9.145976602238029e-09,-1.2441095415214099e-08,5.3047758958359e-08,0.0,0.0,0.0,0.0,0.0,0.0,0.0,0.0,0.0,0.0,0.0,0.0,0.0,0.0,0.0,0.0,0.0,0.0,0.0,0.0,0.0,0.0,0.0,0.0,0.0,0.0,0.0,0.0,0.0,0.0,0.0,0.0,0.0,0.0,0.0,0.0,0.0,0.0,0.0,0.0,0.0,0.0
1776753654461470604,47,1776753654461470604,camera_init,body,-1.8362533012416324,1.8124071085987643,-1.9321244068646444e-05,-7.0994230003475645e-06,-3.191230806095952e-07,0.051081924110324944,0.9986944662801955,4.767351600001911e-09,7.794038828726702e-10,-8.776595308289619e-10,1.020292617514063e-09,-2.961402492409976e-09,-6.0893693452348965e-09,7.794038828585059e-10,1.3761883391040053e-08,-2.9811168358778816e-09,5.210847581646441e-09,-3.566649568938973e-09,2.1861214503864016e-08,-8.776595311901384e-10,-2.9811168345051737e-09,5.058066600609215e-07,4.370144210201442e-07,-3.1101176464772617e-07,-2.9873982034430236e-09,1.0202926162059927e-09,5.21084758641566e-09,4.3701442102036856e-07,1.4526737538251042e-06,-1.697266088236415e-07,7.710708659776252e-09,-2.9614024924159053e-09,-3.5666495689316146e-09,-3.110117646451456e-07,-1.6972660881451366e-07,1.8449458883538755e-06,-4.4241938019501604e-10,-6.0893693451959305e-09,2.1861214503753094e-08,-2.9873982069550108e-09,7.710708647418149e-09,-4.424193801672426e-10,5.6938757096330115e-08,0.0,0.0,0.0,0.0,0.0,0.0,0.0,0.0,0.0,0.0,0.0,0.0,0.0,0.0,0.0,0.0,0.0,0.0,0.0,0.0,0.0,0.0,0.0,0.0,0.0,0.0,0.0,0.0,0.0,0.0,0.0,0.0,0.0,0.0,0.0,0.0,0.0,0.0,0.0,0.0,0.0,0.0
1776753654561470747,48,1776753654561470747,camera_init,body,-1.839624609901165,1.89237591797716,-1.3369114745233482e-05,-1.0194035943477025e-05,-3.613485278252051e-07,0.050274336540813085,0.9987354459421847,5.3057165471610064e-09,6.644559464483556e-10,-2.6665598345397213e-09,-1.3182291043750352e-09,-1.9769756469843656e-09,-7.637851602398813e-09,6.644559464584563e-10,1.5644348201780873e-08,2.90709454527809e-09,1.9593361991438242e-09,4.058666805783637e-09,2.4182684155315406e-08,-2.6665598354116627e-09,2.907094548086068e-09,1.242648759290856e-06,8.775499110868362e-07,-7.074011675507598e-07,5.581431896403734e-09,-1.3182291078469836e-09,1.959336210441232e-09,8.775499110944469e-07,3.5815514490114046e-06,-1.3105185780825356e-06,5.659573956167336e-09,-1.9769756456743233e-09,4.058666801422105e-09,-7.07401167547716e-07,-1.3105185780584277e-06,2.657604629469826e-06,8.678709918777125e-09,-7.637851602245485e-09,2.418268415532603e-08,5.581431889120974e-09,5.659573926800897e-09,8.678709930222234e-09,6.32044266775651e-08,0.0,0.0,0.0,0.0,0.0,0.0,0.0,0.0,0.0,0.0,0.0,0.0,0.0,0.0,0.0,0.0,0.0,0.0,0.0,0.0,0.0,0.0,0.0,0.0,0.0,0.0,0.0,0.0,0.0,0.0,0.0,0.0,0.0,0.0,0.0,0.0,0.0,0.0,0.0,0.0,0.0,0.0
