%time,field.header.seq,field.header.stamp,field.header.frame_id,field.child_frame_id,field.pose.pose.position.x,field.pose.pose.position.y,field.pose.pose.position.z,field.pose.pose.orientation.x,field.pose.pose.orientation.y,field.pose.pose.orientation.z,field.pose.pose.orientation.w,field.pose.covariance0,field.pose.covariance1,field.pose.covariance2,field.pose.covariance3,field.pose.covariance4,field.pose.covariance5,field.pose.covariance6,field.pose.covariance7,field.pose.covariance8,field.pose.covariance9,field.pose.covariance10,field.pose.covariance11,field.pose.covariance12,field.pose.covariance13,field.pose.covariance14,field.pose.covariance15,field.pose.covariance16,field.pose.covariance17,field.pose.covariance18,field.pose.covariance19,field.pose.covariance20,field.pose.covariance21,field.pose.covariance22,field.pose.covariance23,field.pose.covariance24,field.pose.covariance25,field.pose.covariance26,field.pose.covariance27,field.pose.covariance28,field.pose.covariance29,field.pose.covariance30,field.pose.covariance31,field.pose.covariance32,field.pose.covariance33,field.pose.covariance34,field.pose.covariance35,field.twist.twist.linear.x,field.twist.twist.linear.y,field.twist.twist.linear.z,field.twist.twist.angular.x,field.twist.twist.angular.y,field.twist.twist.angular.z,field.twist.covariance0,field.twist.covariance1,field.twist.covariance2,field.twist.covariance3,field.twist.covariance4,field.twist.covariance5,field.twist.covariance6,field.twist.covariance7,field.twist.covariance8,field.twist.covariance9,field.twist.covariance10,field.twist.covariance11,field.twist.covariance12,field.twist.covariance13,field.twist.covariance14,field.twist.covariance15,field.twist.covariance16,field.twist.covariance17,field.twist.covariance18,field.twist.covariance19,field.twist.covariance20,field.twist.covariance21,field.twist.covariance22,field.twist.covariance23,field.twist.covariance24,field.twist.covariance25,field.twist.covariance26,field.twist.covariance27,field.twist.covariance28,field.twist.covariance29,field.twist.covariance30,field.twist.covariance31,field.twist.covariance32,field.twist.covariance33,field.twist.covariance34,field.twist.covariance35
1776755610274471045,0,1776755610274471045,camera_init,body,0.013315576141275385,-0.05850942621662478,0.003237626854329455,-0.0003404883847800362,0.0027214508253006536,0.006117448851458093,0.9999775270437906,0.0,0.0,0.0,0.0,0.0,0.0,0.0,0.0,0.0,0.0,0.0,0.0,0.0,0.0,0.0,0.0,0.0,0.0,0.0,0.0,0.0,0.0,0.0,0.0,0.0,0.0,0.0,0.0,0.0,0.0,0.0,0.0,0.0,0.0,0.0,0.0,0.0,0.0,0.0,0.0,0.0,0.0,0.0,0.0,0.0,0.0,0.0,0.0,0.0,0.0,0.0,0.0,0.0,0.0,0.0,0.0,0.0,0.0,0.0,0.0,0.0,0.0,0.0,0.0,0.0,0.0,0.0,0.0,0.0,0.0,0.0,0.0,0.0,0.0,0.0,0.0,0.0,0.0
1776755610374471188,1,1776755610374471188,camera_init,body,0.014091709570307084,-0.08328003915106738,-0.032678099550009665,-0.00109538197198899,0.001013486176770823,0.009301036657119247,0.9999556308662937,7.041428107257275e-09,7.204181616594283e-09,-5.714121014462753e-10,6.067172453024308e-09,4.012362608829534e-09,4.178149704316297e-08,7.204181835970364e-09,4.551757926130051e-08,-1.0071878270722708e-08,3.113588584180427e-08,6.132164490470562e-08,2.6281535947581554e-07,-5.714114530933762e-10,-1.0071870716594046e-08,1.0354810120460911e-08,-5.856618017090784e-09,-5.91224596951153e-08,-6.21267251347638e-08,6.06717215465187e-09,3.113587956904418e-08,-5.856621216557842e-09,1.61317332825206e-07,3.4305790562547385e-08,1.7788491505669064e-07,4.012359555716216e-09,6.132161980238957e-08,-5.9122513185855784e-08,3.430579757007533e-08,3.5096337680506906e-07,3.8663829458059294e-07,4.178149010683634e-08,2.628152969189535e-07,-6.212682116601897e-08,1.7788492606365334e-07,3.866382604392502e-07,1.5764298233467144e-06,0.0,0.0,0.0,0.0,0.0,0.0,0.0,0.0,0.0,0.0,0.0,0.0,0.0,0.0,0.0,0.0,0.0,0.0,0.0,0.0,0.0,0.0,0.0,0.0,0.0,0.0,0.0,0.0,0.0,0.0,0.0,0.0,0.0,0.0,0.0,0.0,0.0,0.0,0.0,0.0,0.0,0.0
1776755610474471092,2,1776755610474471092,camera_init,body,0.0272510018069486,-0.09660249723957749,-0.0633377819694942,-0.00020168554984631925,0.0018017184516774653,0.007784600205217503,0.9999680560563947,4.6633201372499e-09,1.2449099631726974e-09,-5.395655640277144e-10,-2.4784550412560965e-09,2.851514839724418e-09,6.05015990095108e-09,1.2449099631653743e-09,1.9880388586266252e-08,-1.0459530718353189e-09,1.3790939263682347e-08,6.08752931233385e-09,9.433609830412529e-08,-5.395655640272604e-10,-1.0459530718651884e-09,3.3509761901884174e-09,-2.1228666935998926e-09,-1.1252684426956625e-08,-4.1929119475977525e-09,-2.4784550415040463e-09,1.3790939265044058e-08,-2.1228666927454402e-09,2.2309988102590939e-07,9.493556893122764e-09,9.145538152708547e-08,2.8515148394726375e-09,6.087529312010555e-09,-1.1252684424941812e-08,9.493556859759271e-09,5.116076762755328e-08,3.091579764511423e-08,6.050159900558871e-09,9.433609830046997e-08,-4.192911947355991e-09,9.145538156708702e-08,3.0915797661316595e-08,4.83832248182603e-07,0.0,0.0,0.0,0.0,0.0,0.0,0.0,0.0,0.0,0.0,0.0,0.0,0.0,0.0,0.0,0.0,0.0,0.0,0.0,0.0,0.0,0.0,0.0,0.0,0.0,0.0,0.0,0.0,0.0,0.0,0.0,0.0,0.0,0.0,0.0,0.0,0.0,0.0,0.0,0.0,0.0,0.0
1776755610574471235,3,1776755610574471235,camera_init,body,0.0443547031170831,-0.10352458172106488,-0.0945274974527578,0.0010583673614813565,0.001802257703331376,0.006646338030408562,0.9999757286636928,6.068663941529817e-10,1.4883327559029925e-10,-3.4361791419886996e-10,3.3068266182197635e-10,1.3325812671937025e-09,1.071338883485214e-09,1.4883327554197825e-10,1.1969436418439927e-09,9.438353448472559e-12,1.1961490154492365e-09,-7.455814896054026e-11,5.602204630207361e-09,-3.4361791464767794e-10,9.438351159622238e-12,1.2939989199595289e-08,-4.8002101572232116e-09,-4.913942173796882e-08,3.811912438803069e-11,3.3068266121902124e-10,1.1961490132014228e-09,-4.80021015389708e-09,1.6082777906728711e-07,-1.7827828634024414e-09,6.034196834645285e-09,1.3325812690605632e-09,-7.455813925098277e-11,-4.9139421737352344e-08,-1.782782842307033e-09,2.0630675923820747e-07,2.8999181121777876e-10,1.071338883082205e-09,5.602204629569227e-09,3.811913638156062e-11,6.034196842876645e-09,2.899917596460719e-10,2.9866047059525766e-08,0.0,0.0,0.0,0.0,0.0,0.0,0.0,0.0,0.0,0.0,0.0,0.0,0.0,0.0,0.0,0.0,0.0,0.0,0.0,0.0,0.0,0.0,0.0,0.0,0.0,0.0,0.0,0.0,0.0,0.0,0.0,0.0,0.0,0.0,0.0,0.0,0.0,0.0,0.0,0.0,0.0,0.0
1776755610674471140,4,1776755610674471140,camera_init,body,0.06698115074308898,-0.1146229386558929,-0.12456089107935336,0.0009857833399242115,0.0013457347399548675,0.006116373871496438,0.9999799033980034,9.958909704115438e-10,1.5857553094511165e-10,-1.4987090908977804e-10,-1.982065117828495e-10,6.820367609896504e-10,1.6040183556491315e-09,1.58575530928473e-10,2.2484768104816103e-09,3.7279591438433536e-10,-3.024755176037296e-10,-2.450246823715468e-09,8.663949005618132e-09,-1.4987090916993391e-10,3.7279591397559916e-10,7.374960124468036e-09,8.226185036679015e-09,-3.552983386053921e-08,1.7505490810563925e-09,-1.9820651195042638e-10,-3.024755184516096e-10,8.226185036789711e-09,6.94728506488066e-08,-5.231255520200122e-08,-3.1817547406415354e-10,6.82036761526881e-10,-2.450246821075799e-09,-3.5529833860577855e-08,-5.231255520108277e-08,2.0162015507784726e-07,-9.477315584182858e-09,1.6040183556589865e-09,8.663949006254343e-09,1.7505490831507807e-09,-3.1817546983704223e-10,-9.477315596274687e-09,4.128570249048665e-08,0.0,0.0,0.0,0.0,0.0,0.0,0.0,0.0,0.0,0.0,0.0,0.0,0.0,0.0,0.0,0.0,0.0,0.0,0.0,0.0,0.0,0.0,0.0,0.0,0.0,0.0,0.0,0.0,0.0,0.0,0.0,0.0,0.0,0.0,0.0,0.0,0.0,0.0,0.0,0.0,0.0,0.0
1776755610774471045,5,1776755610774471045,camera_init,body,0.09604723163947008,-0.1308028754427455,-0.15155668252231985,0.0005077336608353436,0.00109516833288152,0.007360381428616066,0.9999721834121563,1.14539832413369e-09,1.2351800192811948e-10,-7.681970058344032e-11,-1.951313750642268e-10,3.11983477579173e-10,6.891113072245321e-10,1.2351800192837358e-10,1.8403465230828206e-09,1.9000502775128778e-10,-3.5136716715052596e-10,-9.15549783888876e-10,7.191245561445027e-09,-7.681970059015786e-11,1.9000502769087717e-10,3.018676298537819e-09,6.034539999294399e-09,-1.2792345755746566e-08,8.980583167759151e-10,-1.9513137510876055e-10,-3.5136716739129507e-10,6.034539999079369e-09,3.859462643392442e-08,-2.7972114350458635e-08,-5.04577005443266e-10,3.1198347759918415e-10,-9.155497836559783e-10,-1.2792345755960825e-08,-2.7972114350473246e-08,7.363501232352548e-08,-3.771895122781454e-09,6.891113072167483e-10,7.191245561080948e-09,8.980583170435771e-10,-5.045770049666751e-10,-3.771895124006535e-09,3.4074259788043804e-08,0.0,0.0,0.0,0.0,0.0,0.0,0.0,0.0,0.0,0.0,0.0,0.0,0.0,0.0,0.0,0.0,0.0,0.0,0.0,0.0,0.0,0.0,0.0,0.0,0.0,0.0,0.0,0.0,0.0,0.0,0.0,0.0,0.0,0.0,0.0,0.0,0.0,0.0,0.0,0.0,0.0,0.0
1776755610874471188,6,1776755610874471188,camera_init,body,0.12595272344934672,-0.14150918212020203,-0.17453739973741045,0.0006117943672206856,0.0006984369089477128,0.006967255689616892,0.9999752973157328,1.258594250852865e-09,2.2346298106498807e-10,-1.596721093539732e-10,1.9270444841688026e-10,1.2035813942792827e-09,1.1800077392667224e-09,2.23462981054568e-10,2.3280867768668426e-09,2.9869767229803913e-10,1.0788190949485928e-09,-1.6908025300022296e-09,9.019363208205555e-09,-1.596721094037943e-10,2.9869767194839744e-10,8.269920819294876e-09,1.1528789389290202e-08,-3.390472341425369e-08,1.3989786581940702e-09,1.9270444824666634e-10,1.0788190941999216e-09,1.1528789390464301e-08,1.0582711429926553e-07,-6.015896239109164e-08,5.268726457406166e-09,1.2035813945579565e-09,-1.6908025284716691e-09,-3.390472341546621e-08,-6.015896238828746e-08,1.585343161906756e-07,-7.335812365713344e-09,1.1800077391774018e-09,9.019363207692127e-09,1.3989786598352797e-09,5.268726460931502e-09,-7.335812373316138e-09,4.1861596249118e-08,0.0,0.0,0.0,0.0,0.0,0.0,0.0,0.0,0.0,0.0,0.0,0.0,0.0,0.0,0.0,0.0,0.0,0.0,0.0,0.0,0.0,0.0,0.0,0.0,0.0,0.0,0.0,0.0,0.0,0.0,0.0,0.0,0.0,0.0,0.0,0.0,0.0,0.0,0.0,0.0,0.0,0.0
1776755610974471092,7,1776755610974471092,camera_init,body,0.16418520460115427,-0.14901650028561716,-0.19531865549169095,0.000755940100468228,-0.0006304696058332066,0.0045475330185608485,0.999989175444455,2.203891714144899e-09,1.5421425591594196e-10,-5.537370851656904e-10,9.225104845832564e-10,2.0863814598743987e-09,1.3521403670931633e-09,1.5421425591022296e-10,4.191994185065125e-09,-2.4485981735251797e-10,-5.3013162041687e-10,5.576076429909039e-11,1.5729510291061e-08,-5.537370851879275e-10,-2.448598175874702e-10,1.4538133471909769e-08,2.480832957761154e-09,-3.495317446405285e-08,-1.5133227755934636e-09,9.225104845461127e-10,-5.301316206926851e-10,2.4808329581306557e-09,1.2288489252568713e-07,-1.516467914446048e-08,-2.473905702475782e-10,2.0863814599597373e-09,5.576076519518838e-11,-3.495317446420319e-08,-1.516467914324197e-08,1.3160496064861054e-07,1.4706220103403456e-09,1.3521403670733002e-09,1.5729510291028333e-08,-1.5133227744652972e-09,-2.473905687676297e-10,1.4706220060494157e-09,7.284155561842208e-08,0.0,0.0,0.0,0.0,0.0,0.0,0.0,0.0,0.0,0.0,0.0,0.0,0.0,0.0,0.0,0.0,0.0,0.0,0.0,0.0,0.0,0.0,0.0,0.0,0.0,0.0,0.0,0.0,0.0,0.0,0.0,0.0,0.0,0.0,0.0,0.0,0.0,0.0,0.0,0.0,0.0,0.0
1776755611074471235,8,1776755611074471235,camera_init,body,0.21292309104929646,-0.14944446481873724,-0.21071809032947153,0.00043240085647638276,-0.0015684037068801162,0.003518390398504164,0.9999924870059339,4.891957645278267e-09,-4.010184978115184e-10,-7.367359430786055e-10,9.669716131998187e-10,4.560191763827988e-09,-2.5584791894252562e-09,-4.0101849785005943e-10,1.0643846188306829e-08,-3.711658380629242e-10,-2.9861911580606914e-09,1.3517699344720197e-10,4.5923482640619616e-08,-7.367359430645468e-10,-3.711658382578093e-10,8.816855578882296e-09,3.6319317910760302e-09,-1.6367475402901802e-08,-2.6653874012333735e-09,9.669716131951873e-10,-2.9861911582699085e-09,3.6319317911129903e-09,8.593279854842595e-08,2.1327592189712543e-09,-6.744412332657345e-09,4.560191763756837e-09,1.3517699470148406e-10,-1.6367475402981562e-08,2.132759219241769e-09,1.1700578750790978e-07,2.609814143901837e-10,-2.5584791896779996e-09,4.5923482641006346e-08,-2.665387400238543e-09,-6.7444123314317e-09,2.6098140761249406e-10,2.3236438088612315e-07,0.0,0.0,0.0,0.0,0.0,0.0,0.0,0.0,0.0,0.0,0.0,0.0,0.0,0.0,0.0,0.0,0.0,0.0,0.0,0.0,0.0,0.0,0.0,0.0,0.0,0.0,0.0,0.0,0.0,0.0,0.0,0.0,0.0,0.0,0.0,0.0,0.0,0.0,0.0,0.0,0.0,0.0
1776755611174471140,9,1776755611174471140,camera_init,body,0.27540620441524954,-0.14917990163575245,-0.22040197087119195,0.0008352966780767397,-0.0004351135147791237,0.004190181182562818,0.9999907776261457,6.6818051848059005e-09,-1.1649405559053272e-10,-6.256755121912286e-10,1.6169305369258333e-09,3.790952684544574e-09,2.9966103430376962e-09,-1.1649405562452612e-10,1.2479288224003502e-08,1.5236692784558648e-09,3.4067560076078252e-09,-3.78214740954451e-09,5.0275049970665067e-08,-6.256755122382257e-10,1.5236692778823391e-09,2.4594210257453662e-08,2.468045017192508e-08,-6.499453335316867e-08,7.0867214648275266e-09,1.6169305367951529e-09,3.406756006520976e-09,2.4680450172634107e-08,2.2686347929997023e-07,-8.133594593617716e-08,3.374698452178576e-08,3.7909526847167335e-09,-3.782147407300874e-09,-6.499453335284237e-08,-8.133594593306452e-08,2.5201662414623954e-07,-1.574659182932274e-08,2.9966103429154166e-09,5.027504997104271e-08,7.0867214677905835e-09,3.3746984527480384e-08,-1.5746591840718122e-08,2.529365302884254e-07,0.0,0.0,0.0,0.0,0.0,0.0,0.0,0.0,0.0,0.0,0.0,0.0,0.0,0.0,0.0,0.0,0.0,0.0,0.0,0.0,0.0,0.0,0.0,0.0,0.0,0.0,0.0,0.0,0.0,0.0,0.0,0.0,0.0,0.0,0.0,0.0,0.0,0.0,0.0,0.0,0.0,0.0
1776755611274471045,10,1776755611274471045,camera_init,body,0.3418204738533207,-0.1492662402295547,-0.2296201172585408,0.0016757124929907832,-0.00011267384635411908,0.0040053665047509734,0.9999905681212218,1.9012639924007014e-09,-6.643111393117954e-10,-8.700167566040595e-10,5.618292816885023e-10,1.739093095517953e-09,1.1633796139281073e-09,-6.643111393274594e-10,7.397229235150038e-09,6.485582833649257e-10,-2.7122248330589914e-09,2.664543144248223e-09,1.7137689041046827e-08,-8.70016756607183e-10,6.485582833021355e-10,6.366114774381405e-09,8.768188755371584e-09,-1.5855172370824427e-08,2.0425629866741403e-10,5.618292821452309e-10,-2.712224832609111e-09,8.768188755414803e-09,5.7974689503130475e-08,-2.0360324749718936e-08,-1.0501755799171624e-09,1.7390930956968888e-09,2.6645431447835444e-09,-1.5855172370698458e-08,-2.0360324749596857e-08,8.731104283263172e-08,1.6423532897278172e-08,1.163379613903785e-09,1.713768904103096e-08,2.0425629879706136e-10,-1.0501755797022542e-09,1.642353289674325e-08,5.374426586546816e-08,0.0,0.0,0.0,0.0,0.0,0.0,0.0,0.0,0.0,0.0,0.0,0.0,0.0,0.0,0.0,0.0,0.0,0.0,0.0,0.0,0.0,0.0,0.0,0.0,0.0,0.0,0.0,0.0,0.0,0.0,0.0,0.0,0.0,0.0,0.0,0.0,0.0,0.0,0.0,0.0,0.0,0.0
1776755611374471188,11,1776755611374471188,camera_init,body,0.4155827112226955,-0.14826515107017232,-0.23744566522195557,0.002328310264788265,5.260166899685859e-05,0.004630770273934653,0.9999865659952859,1.0127296800374174e-09,1.1801880373552945e-10,-3.176176149290728e-10,2.1112421696941266e-10,9.059915026119756e-10,8.938283567553858e-10,1.1801880372325936e-10,1.903474195368612e-09,1.9579837012155932e-10,-4.877572437316025e-10,1.994893990425606e-09,6.462441763047504e-09,-3.1761761493780947e-10,1.9579837013219139e-10,4.79502861115683e-09,3.7343647616633825e-09,-1.0508728666403768e-08,1.8579166438884682e-10,2.111242168749966e-10,-4.877572439053501e-10,3.734364761655499e-09,2.1508094138422078e-08,-6.147034279717847e-09,1.0678016603057883e-09,9.059915025405072e-10,1.994893990386942e-09,-1.0508728666441203e-08,-6.147034279635804e-09,7.229869066853033e-08,1.053860581809628e-08,8.93828356775665e-10,6.462441763240849e-09,1.857916644496844e-10,1.067801660363776e-09,1.053860581775562e-08,2.7808052774679985e-08,0.0,0.0,0.0,0.0,0.0,0.0,0.0,0.0,0.0,0.0,0.0,0.0,0.0,0.0,0.0,0.0,0.0,0.0,0.0,0.0,0.0,0.0,0.0,0.0,0.0,0.0,0.0,0.0,0.0,0.0,0.0,0.0,0.0,0.0,0.0,0.0,0.0,0.0,0.0,0.0,0.0,0.0
1776755611474471092,12,1776755611474471092,camera_init,body,0.4888729095510209,-0.1482166805437435,-0.24765035397658858,0.0031859074515041223,-0.00026275260134578913,0.00477060636101815,0.9999835109989205,1.1876869211488558e-09,-9.780928799707447e-12,-4.0539442219270725e-10,3.285001589283306e-10,6.366451161506539e-10,5.389918359154937e-10,-9.780928791381331e-12,2.1421648643170843e-09,4.631441646710223e-11,-3.688935519447246e-10,1.051351189980432e-09,6.95146953674818e-09,-4.053944221843372e-10,4.6314416444516194e-11,4.3665843780081744e-09,7.913944563826868e-10,-1.5794383123920294e-08,-5.982289681399869e-10,3.285001590356424e-10,-3.6889355127980376e-10,7.913944564087075e-10,1.7684380139345327e-08,-4.573144447414446e-09,1.2858647574359482e-09,6.366451161489598e-10,1.0513511902970908e-09,-1.5794383124011293e-08,-4.573144447336228e-09,1.0562532603508237e-07,6.519779763875528e-09,5.389918359356654e-10,6.951469536987758e-09,-5.982289680595229e-10,1.2858647574844127e-09,6.519779763374984e-09,2.942314765873137e-08,0.0,0.0,0.0,0.0,0.0,0.0,0.0,0.0,0.0,0.0,0.0,0.0,0.0,0.0,0.0,0.0,0.0,0.0,0.0,0.0,0.0,0.0,0.0,0.0,0.0,0.0,0.0,0.0,0.0,0.0,0.0,0.0,0.0,0.0,0.0,0.0,0.0,0.0,0.0,0.0,0.0,0.0
1776755611574471235,13,1776755611574471235,camera_init,body,0.5726332085126694,-0.14302738104263682,-0.25701400970912025,0.003935450187384976,-0.0006392085511784595,0.005222065815838207,0.9999784166035102,1.182060263026411e-09,3.312533419406727e-11,-5.7120619689261513e-11,2.60959927630756e-10,-4.902256408131896e-10,6.316336863546625e-10,3.3125334189943184e-11,2.2627868368917028e-09,2.1758472401508868e-10,9.113608736788928e-11,2.8919077583803255e-10,7.276184969743566e-09,-5.712061968693548e-11,2.1758472417297101e-10,5.3267632764956606e-09,4.518080042174121e-09,-1.8704108920766842e-08,5.805439182320609e-10,2.609599277423203e-10,9.113608908291924e-11,4.5180800420852185e-09,2.5170238529317052e-08,-1.2898555263150506e-08,2.6459074970589267e-09,-4.902256407183219e-10,2.8919077625923126e-10,-1.8704108921014427e-08,-1.289855526303848e-08,1.2908928668309306e-07,7.069006993198333e-10,6.316336863726934e-10,7.276184969929008e-09,5.805439183021011e-10,2.6459074971435423e-09,7.069006988055122e-10,3.012636390327515e-08,0.0,0.0,0.0,0.0,0.0,0.0,0.0,0.0,0.0,0.0,0.0,0.0,0.0,0.0,0.0,0.0,0.0,0.0,0.0,0.0,0.0,0.0,0.0,0.0,0.0,0.0,0.0,0.0,0.0,0.0,0.0,0.0,0.0,0.0,0.0,0.0,0.0,0.0,0.0,0.0,0.0,0.0
1776755611674471140,14,1776755611674471140,camera_init,body,0.6641089324366047,-0.13176807551052883,-0.26533125942037417,0.004572742056882378,-0.0008095626553979632,0.005250383094745627,0.9999754337561225,1.2521983391256485e-09,1.1426482046808673e-10,-2.2513133702091502e-10,2.622984204761986e-10,-1.1158121181348922e-10,1.0596593559087338e-09,1.1426482046730904e-10,2.5191300113283437e-09,2.7027812542258827e-10,-5.235342015086772e-10,-2.1737654015460483e-10,7.943682444497474e-09,-2.2513133702477134e-10,2.7027812540622327e-10,5.327773003533428e-09,1.1260750401760114e-09,-1.5450780028022447e-08,3.672019943905445e-10,2.6229842034061044e-10,-5.235342026728181e-10,1.1260750402129458e-09,2.1189401113341046e-08,-5.366628860692007e-09,9.888334125700827e-10,-1.1158121177230224e-10,-2.1737654016933113e-10,-1.5450780027879474e-08,-5.3666288606500324e-09,7.93111145807799e-08,3.85012640441979e-10,1.05965935588884e-09,7.943682444241645e-09,3.672019944531102e-10,9.888334126106774e-10,3.850126401580873e-10,3.273887527239098e-08,0.0,0.0,0.0,0.0,0.0,0.0,0.0,0.0,0.0,0.0,0.0,0.0,0.0,0.0,0.0,0.0,0.0,0.0,0.0,0.0,0.0,0.0,0.0,0.0,0.0,0.0,0.0,0.0,0.0,0.0,0.0,0.0,0.0,0.0,0.0,0.0,0.0,0.0,0.0,0.0,0.0,0.0
1776755611774471045,15,1776755611774471045,camera_init,body,0.7622314179005476,-0.11570748635834568,-0.2718308543305117,0.004970552613618184,-0.0008363409166908413,0.0058488722213570375,0.9999701919729027,1.2494959090626084e-09,1.325851119885534e-10,1.0581123318440462e-10,-6.267962124124266e-10,-6.065760030140317e-10,1.138345201528088e-09,1.32585111980941e-10,2.643544862782857e-09,-2.2234673050291483e-10,9.324834134038033e-11,1.842713728279765e-09,8.429880206805567e-09,1.0581123318542784e-10,-2.2234673051659526e-10,4.856089103180477e-09,-2.172551082137918e-09,-1.6352686186600445e-08,-5.353109734247025e-10,-6.26796212402579e-10,9.324834136801478e-11,-2.172551082141738e-09,2.5449629965502612e-08,1.6212989444206634e-08,1.0250194275812436e-09,-6.065760030047143e-10,1.8427137284236068e-09,-1.635268618670841e-08,1.6212989444252245e-08,9.922712218669386e-08,6.506449536834126e-09,1.1383452015648198e-09,8.429880207264204e-09,-5.353109733765999e-10,1.0250194275478082e-09,6.506449536506734e-09,3.414684625376008e-08,0.0,0.0,0.0,0.0,0.0,0.0,0.0,0.0,0.0,0.0,0.0,0.0,0.0,0.0,0.0,0.0,0.0,0.0,0.0,0.0,0.0,0.0,0.0,0.0,0.0,0.0,0.0,0.0,0.0,0.0,0.0,0.0,0.0,0.0,0.0,0.0,0.0,0.0,0.0,0.0,0.0,0.0
1776755611874471188,16,1776755611874471188,camera_init,body,0.8605192531193265,-0.09277887912432653,-0.2813552776785206,0.005555114857830491,-0.001725784014788305,0.0061787837885672724,0.9999639918513779,1.436813102333569e-09,9.603713113183925e-11,9.738846753137647e-11,-6.903954342243499e-10,-1.039809877671886e-09,1.1595852736976387e-09,9.603713112093059e-11,3.450267815735249e-09,-5.927628581175369e-11,3.047260085085655e-10,1.611165335255064e-09,1.0687128968991732e-08,9.73884675267393e-11,-5.927628582291869e-11,4.0305790883696235e-09,-2.404211136806016e-09,-1.2466408695734236e-08,-1.354232059475158e-10,-6.903954342291045e-10,3.047260084922601e-10,-2.404211136803597e-09,2.7832042222674004e-08,1.7087898834341675e-08,2.0111022065546293e-09,-1.0398098776714624e-09,1.6111653352826562e-09,-1.2466408695733058e-08,1.70878988343824e-08,8.305331942278343e-08,6.127568463514708e-09,1.1595852736917045e-09,1.0687128968762096e-08,-1.354232059060059e-10,2.0111022065355107e-09,6.127568463231597e-09,4.2111671774954015e-08,0.0,0.0,0.0,0.0,0.0,0.0,0.0,0.0,0.0,0.0,0.0,0.0,0.0,0.0,0.0,0.0,0.0,0.0,0.0,0.0,0.0,0.0,0.0,0.0,0.0,0.0,0.0,0.0,0.0,0.0,0.0,0.0,0.0,0.0,0.0,0.0,0.0,0.0,0.0,0.0,0.0,0.0
1776755611974471092,17,1776755611974471092,camera_init,body,0.9647754580417278,-0.07572941709555898,-0.29007057502137407,0.005696698926279104,-0.0018992814569771272,0.007701574620737529,0.9999523119127484,1.4435426370825724e-09,1.660880257174369e-10,2.378383238780093e-10,-8.226187180270608e-10,-1.7271069428727005e-09,1.4279114059953384e-09,1.6608802574989628e-10,3.4104711264893524e-09,-6.43994213106443e-11,-6.134093071004589e-10,1.0207000741729762e-09,1.0595576348373319e-08,2.3783832387679167e-10,-6.439942132558775e-11,4.603213369223816e-09,-6.331699631087416e-11,-1.7048813477403564e-08,1.4098272447655603e-10,-8.226187180216213e-10,-6.134093070917768e-10,-6.331699630383982e-11,2.256253638141973e-08,3.6840035567972462e-09,-1.2316266142278134e-09,-1.7271069428333135e-09,1.0207000742658892e-09,-1.7048813477228083e-08,3.6840035568165162e-09,8.95999437682436e-08,2.993568286160203e-09,1.4279114060393146e-09,1.0595576348342994e-08,1.4098272452621693e-10,-1.231626614212456e-09,2.99356828586706e-09,4.205442804670757e-08,0.0,0.0,0.0,0.0,0.0,0.0,0.0,0.0,0.0,0.0,0.0,0.0,0.0,0.0,0.0,0.0,0.0,0.0,0.0,0.0,0.0,0.0,0.0,0.0,0.0,0.0,0.0,0.0,0.0,0.0,0.0,0.0,0.0,0.0,0.0,0.0,0.0,0.0,0.0,0.0,0.0,0.0
1776755612074471235,18,1776755612074471235,camera_init,body,1.075182899747136,-0.049279012084217706,-0.29506542696720517,0.00560002656689083,-0.0016662861890760032,0.006942525293635614,0.9999588314202407,1.4026328218268527e-09,2.9632745631467003e-10,1.0611681060148862e-11,-2.1533644440623196e-10,-1.2979455855622956e-09,2.042077655949955e-09,2.9632745631493426e-10,3.88042475801424e-09,-2.5300142712297206e-10,-8.386655062732081e-10,1.322571175071786e-09,1.201637977519321e-08,1.0611681058664486e-11,-2.5300142713013845e-10,3.924848014808262e-09,-3.0480327837166204e-09,-1.270869193127117e-08,-1.15755018809018e-09,-2.1533644440275118e-10,-8.386655062732081e-10,-3.0480327837033656e-09,2.8526761723570703e-08,1.1537340498841923e-08,-6.984280513894044e-10,-1.2979455855822009e-09,1.3225711750973392e-09,-1.270869193133708e-08,1.1537340498863323e-08,7.36968300270579e-08,5.9753174056794345e-09,2.0420776558942824e-09,1.2016379775158734e-08,-1.1575501880434776e-09,-6.984280513951772e-10,5.9753174054528995e-09,4.722950182331266e-08,0.0,0.0,0.0,0.0,0.0,0.0,0.0,0.0,0.0,0.0,0.0,0.0,0.0,0.0,0.0,0.0,0.0,0.0,0.0,0.0,0.0,0.0,0.0,0.0,0.0,0.0,0.0,0.0,0.0,0.0,0.0,0.0,0.0,0.0,0.0,0.0,0.0,0.0,0.0,0.0,0.0,0.0
1776755612174471140,19,1776755612174471140,camera_init,body,1.1918915825458107,-0.013522906591949393,-0.2973846328281865,0.005815720267633706,-0.0014920147067276851,0.005355952180963366,0.9999676320092148,1.3743721992521087e-09,3.740778679253228e-10,1.2499993572617535e-11,-7.008058219919417e-10,-4.3724772283318303e-10,2.0332968558113593e-09,3.7407786793137203e-10,3.9935016902788254e-09,-2.4166824952823834e-10,-6.464290595668632e-10,3.577730700217713e-10,1.1475893893922375e-08,1.249999356829138e-11,-2.4166824952923984e-10,4.269282734635342e-09,-5.61196863258649e-09,-1.2594375842690941e-08,-2.0780573961658522e-10,-7.008058219894254e-10,-6.464290594716778e-10,-5.611968632666275e-09,3.390641620028294e-08,1.6421463105736e-08,-2.272133006387056e-09,-4.372477228414416e-10,3.577730700101246e-10,-1.2594375842840431e-08,1.6421463105749824e-08,6.358419140599396e-08,7.78800661478974e-10,2.033296855855084e-09,1.1475893893912603e-08,-2.078057395854977e-10,-2.272133006400382e-09,7.788006613199105e-10,4.2877130278618136e-08,0.0,0.0,0.0,0.0,0.0,0.0,0.0,0.0,0.0,0.0,0.0,0.0,0.0,0.0,0.0,0.0,0.0,0.0,0.0,0.0,0.0,0.0,0.0,0.0,0.0,0.0,0.0,0.0,0.0,0.0,0.0,0.0,0.0,0.0,0.0,0.0,0.0,0.0,0.0,0.0,0.0,0.0
1776755612274471045,20,1776755612274471045,camera_init,body,1.3135794263813916,0.02141713452617805,-0.2993244579563563,0.005850230362186413,-0.0013150401779938928,0.006336585992185802,0.9999619458519406,1.4441954841691302e-09,5.108407981237542e-10,-2.046326536945724e-10,-4.5980427727374303e-10,1.816421177554927e-10,2.757463110525142e-09,5.108407981128672e-10,4.513339041632431e-09,-4.233327283459893e-10,-1.1512444434346055e-09,1.957452614280298e-09,1.318753966526906e-08,-2.0463265369716953e-10,-4.233327283587623e-10,3.614325795338986e-09,-4.137013994309322e-09,-1.2376419993279074e-08,-1.2606655742533826e-09,-4.5980427725202954e-10,-1.1512444434024182e-09,-4.137013994260616e-09,2.6022037013467448e-08,1.7003713624036584e-08,-2.4913009780052052e-09,1.8164211778630352e-10,1.957452614346921e-09,-1.2376419993349155e-08,1.700371362404131e-08,7.69506491076261e-08,5.493247936363351e-09,2.757463110534082e-09,1.3187539665372286e-08,-1.2606655742143093e-09,-2.4913009780304624e-09,5.49324793615315e-09,4.9209366819000264e-08,0.0,0.0,0.0,0.0,0.0,0.0,0.0,0.0,0.0,0.0,0.0,0.0,0.0,0.0,0.0,0.0,0.0,0.0,0.0,0.0,0.0,0.0,0.0,0.0,0.0,0.0,0.0,0.0,0.0,0.0,0.0,0.0,0.0,0.0,0.0,0.0,0.0,0.0,0.0,0.0,0.0,0.0
1776755612374471188,21,1776755612374471188,camera_init,body,1.4342772543293127,0.058182445724657514,-0.3019145483401043,0.006009830057612074,-0.0017599256949071462,0.007566712041486827,0.9999517635731767,1.5110872809582783e-09,4.832854187349796e-10,1.1647015183020427e-11,-1.152088143612796e-09,-1.9097379762952513e-10,2.668242703285099e-09,4.83285418757773e-10,4.3795610950669406e-09,-2.0516279927889068e-10,-1.0498887522661502e-09,1.2471817223932006e-09,1.2970659092982201e-08,1.1647015181953364e-11,-2.0516279927784962e-10,3.055318860616747e-09,-4.3716187339522456e-09,-7.025176745390932e-09,-2.8268030593207344e-10,-1.1520881436180569e-09,-1.0498887522518565e-09,-4.371618734055115e-09,3.357367811656391e-08,2.4335594452022967e-08,-3.8939522741122955e-09,-1.9097379762423118e-10,1.2471817223898282e-09,-7.025176745608593e-09,2.4335594452024754e-08,5.488149260477833e-08,2.2616013003847723e-09,2.668242703263827e-09,1.2970659092595871e-08,-2.826803059197468e-10,-3.893952274138909e-09,2.261601300267058e-09,4.9003490720835027e-08,0.0,0.0,0.0,0.0,0.0,0.0,0.0,0.0,0.0,0.0,0.0,0.0,0.0,0.0,0.0,0.0,0.0,0.0,0.0,0.0,0.0,0.0,0.0,0.0,0.0,0.0,0.0,0.0,0.0,0.0,0.0,0.0,0.0,0.0,0.0,0.0,0.0,0.0,0.0,0.0,0.0,0.0
1776755612474471092,22,1776755612474471092,camera_init,body,1.5595885786601122,0.103247101552094,-0.30214714073601867,0.005920640655603888,-0.0011496444083004794,0.007218921045932734,0.9999557547766271,1.4841440789282057e-09,5.548637205345993e-10,-6.051708304774524e-11,-3.1435575023565427e-10,8.596075910833865e-10,2.7428862603163462e-09,5.548637205288104e-10,4.373170365548282e-09,-5.196378307504886e-10,-6.617889150909145e-10,1.2375701539369615e-09,1.2306372522467093e-08,-6.051708304823659e-11,-5.196378307548533e-10,2.374088456085096e-09,-3.3137814309153648e-09,-5.641615825959228e-09,-1.2895616458370485e-09,-3.143557502329229e-10,-6.617889150959967e-10,-3.313781430885773e-09,2.2994466899538584e-08,1.5161697140284048e-08,-1.791405378072487e-09,8.596075910929156e-10,1.2375701539359747e-09,-5.6416158259229124e-09,1.5161697140288058e-08,5.351139995997648e-08,4.5419314511665454e-09,2.7428862603172462e-09,1.2306372522467437e-08,-1.2895616458397594e-09,-1.7914053780882233e-09,4.541931451054909e-09,4.513628919743769e-08,0.0,0.0,0.0,0.0,0.0,0.0,0.0,0.0,0.0,0.0,0.0,0.0,0.0,0.0,0.0,0.0,0.0,0.0,0.0,0.0,0.0,0.0,0.0,0.0,0.0,0.0,0.0,0.0,0.0,0.0,0.0,0.0,0.0,0.0,0.0,0.0,0.0,0.0,0.0,0.0,0.0,0.0
1776755612574471235,23,1776755612574471235,camera_init,body,1.693600756366283,0.1510434247227798,-0.30396168345069,0.0057950927804405325,-0.0009076924336196103,0.00789618793109402,0.9999516204348435,1.7414121647235572e-09,6.278185099788854e-10,5.871058320841832e-11,-4.4150403239859727e-10,-1.2423413532667886e-11,2.9930069981042952e-09,6.278185099758891e-10,5.424184771046087e-09,-1.6919321547578205e-10,1.056327060308906e-09,3.039223445183252e-09,1.4900072216092884e-08,5.871058320707663e-11,-1.6919321548549904e-10,3.100845976439692e-09,-1.8911244956949205e-09,-4.817000886336859e-09,-5.291907836638725e-10,-4.415040323980927e-10,1.0563270603240467e-09,-1.891124495701614e-09,2.9158658574358993e-08,1.79959981327777e-08,3.2147553801468108e-09,-1.2423413527056293e-11,3.03922344523281e-09,-4.817000886328691e-09,1.7995998132791437e-08,5.105474923526445e-08,8.681216625998518e-09,2.993006998114473e-09,1.4900072216246437e-08,-5.291907836303452e-10,3.214755380126591e-09,8.681216625886999e-09,5.2893370142995614e-08,0.0,0.0,0.0,0.0,0.0,0.0,0.0,0.0,0.0,0.0,0.0,0.0,0.0,0.0,0.0,0.0,0.0,0.0,0.0,0.0,0.0,0.0,0.0,0.0,0.0,0.0,0.0,0.0,0.0,0.0,0.0,0.0,0.0,0.0,0.0,0.0,0.0,0.0,0.0,0.0,0.0,0.0
1776755612674471140,24,1776755612674471140,camera_init,body,1.8323707721937825,0.1982495301980893,-0.3057363572874746,0.005789257646495083,-0.0009413581074470224,0.009338416315177272,0.9999391943121032,2.041758232076236e-09,9.251817927017235e-10,7.848031066364769e-11,-1.2085858530727797e-09,1.709079006468924e-10,3.6907511427983165e-09,9.251817926998496e-10,6.297080270986849e-09,-1.2691777104897292e-10,-1.9980247329122745e-09,1.7198009296887555e-09,1.7461501815246892e-08,7.848031066341938e-11,-1.2691777104927303e-10,3.872089214102773e-09,-4.062463267949154e-09,-7.740141816296261e-09,-2.084167251880684e-11,-1.208585853075038e-09,-1.9980247329297446e-09,-4.0624632679958335e-09,2.8204637742934173e-08,1.633625124348316e-08,-6.467437547076789e-09,1.709079006468924e-10,1.7198009297078468e-09,-7.740141816414255e-09,1.6336251243477588e-08,5.676176603533148e-08,2.734520583182009e-09,3.690751142816809e-09,1.7461501815292192e-08,-2.0841672503800335e-11,-6.467437547096031e-09,2.734520583048555e-09,6.114245340494907e-08,0.0,0.0,0.0,0.0,0.0,0.0,0.0,0.0,0.0,0.0,0.0,0.0,0.0,0.0,0.0,0.0,0.0,0.0,0.0,0.0,0.0,0.0,0.0,0.0,0.0,0.0,0.0,0.0,0.0,0.0,0.0,0.0,0.0,0.0,0.0,0.0,0.0,0.0,0.0,0.0,0.0,0.0
1776755612774471045,25,1776755612774471045,camera_init,body,1.974508122797888,0.2552218359701998,-0.30909152297659087,0.005512108657795706,-0.001062983094217873,0.009634173326730808,0.999937832782316,2.018569970855676e-09,7.300649810412089e-10,-6.79573835769504e-11,-9.434766120290907e-10,-3.5417808161463033e-10,2.974967412579602e-09,7.300649810457877e-10,6.457262381116585e-09,-7.4298182914235e-10,-1.3124053877681815e-09,2.383702082407297e-09,1.6708433077936678e-08,-6.795738358018095e-11,-7.42981829161937e-10,4.069694004272498e-09,-3.3445225072835663e-09,-8.43784077776235e-09,-1.6149916790535805e-09,-9.43476612037442e-10,-1.3124053878165682e-09,-3.344522507261039e-09,2.7037825157644062e-08,1.6990052917954022e-08,-3.0495669470243576e-09,-3.54178081618442e-10,2.383702082402726e-09,-8.437840777677282e-09,1.699005291795794e-08,6.780891748707186e-08,6.12713514544245e-09,2.9749674126201107e-09,1.6708433078213238e-08,-1.6149916790377142e-09,-3.049566947044769e-09,6.1271351453107e-09,5.628183300551911e-08,0.0,0.0,0.0,0.0,0.0,0.0,0.0,0.0,0.0,0.0,0.0,0.0,0.0,0.0,0.0,0.0,0.0,0.0,0.0,0.0,0.0,0.0,0.0,0.0,0.0,0.0,0.0,0.0,0.0,0.0,0.0,0.0,0.0,0.0,0.0,0.0,0.0,0.0,0.0,0.0,0.0,0.0
1776755612874471188,26,1776755612874471188,camera_init,body,2.120473460962784,0.3121441185929165,-0.3129645949421305,0.005400104672511819,-0.0013276461714806943,0.009648545837991853,0.9999379889715058,2.090635445496517e-09,6.092975174993648e-10,6.74198335769726e-11,-3.462310609910866e-10,1.4041298860462743e-09,2.3249053842262536e-09,6.092975174914954e-10,6.543125794487587e-09,-5.16978816227631e-10,-1.4129957159297394e-09,2.046322224236942e-09,1.573790461826383e-08,6.741983357899837e-11,-5.169788162269357e-10,2.994678388568931e-09,-1.3815926743774912e-09,-8.031313017289092e-09,-1.0197189762794656e-09,-3.462310609877679e-10,-1.4129957159263513e-09,-1.3815926744222367e-09,2.3351765313515168e-08,1.4742056969807453e-08,-3.1673079058522268e-09,1.4041298860576033e-09,2.0463222243089546e-09,-8.031313017489424e-09,1.474205696980789e-08,7.326663829191328e-08,6.767619709218644e-09,2.3249053842196825e-09,1.573790461832786e-08,-1.0197189762874536e-09,-3.1673079058648297e-09,6.7676197090991035e-09,5.096562735031711e-08,0.0,0.0,0.0,0.0,0.0,0.0,0.0,0.0,0.0,0.0,0.0,0.0,0.0,0.0,0.0,0.0,0.0,0.0,0.0,0.0,0.0,0.0,0.0,0.0,0.0,0.0,0.0,0.0,0.0,0.0,0.0,0.0,0.0,0.0,0.0,0.0,0.0,0.0,0.0,0.0,0.0,0.0
1776755612974471092,27,1776755612974471092,camera_init,body,2.2753645751161664,0.36659239133880167,-0.3140936341324235,0.005239478115353507,-0.0010910624076006705,0.010048821935737232,0.9999351872144522,2.19854023242918e-09,1.0006768371208588e-09,2.519489381545352e-10,-6.109412774779704e-10,8.454015103512249e-11,3.3661878005177444e-09,1.0006768371250625e-09,7.709382371056642e-09,-6.453327326061815e-10,-3.3265515663830854e-10,2.609854820090172e-09,1.8195567546070227e-08,2.519489381514457e-10,-6.453327326140329e-10,6.401521070203324e-09,-6.513964786657511e-09,-1.330902897278176e-08,-1.53703313196534e-09,-6.109412774722017e-10,-3.326551566253913e-10,-6.5139647867041e-09,4.0416538601779774e-08,2.3096293917274023e-08,-4.921907837456329e-10,8.454015106339222e-11,2.6098548201333395e-09,-1.3309028972869083e-08,2.3096293917286874e-08,7.578244837743549e-08,6.571851429855615e-09,3.3661878005707303e-09,1.81955675459763e-08,-1.5370331319471061e-09,-4.921907837597546e-10,6.57185142973219e-09,5.642095669270153e-08,0.0,0.0,0.0,0.0,0.0,0.0,0.0,0.0,0.0,0.0,0.0,0.0,0.0,0.0,0.0,0.0,0.0,0.0,0.0,0.0,0.0,0.0,0.0,0.0,0.0,0.0,0.0,0.0,0.0,0.0,0.0,0.0,0.0,0.0,0.0,0.0,0.0,0.0,0.0,0.0,0.0,0.0
1776755613074471235,28,1776755613074471235,camera_init,body,2.4363647700216013,0.42148744230208085,-0.3193060854845946,0.0048684985326715195,-0.0018188189103318846,0.01130457348285887,0.9999225951233309,2.3064620773314637e-09,1.1751739473530357e-09,8.073060246122028e-11,-1.1332915450893368e-09,-4.603483327876882e-10,3.8407745476548515e-09,1.175173947351696e-09,8.719363386842124e-09,-3.390348892751048e-10,-4.3192074346441674e-10,2.2407347842210532e-09,1.9954718492120754e-08,8.073060246035947e-11,-3.3903488927571475e-10,5.5775887308352865e-09,-5.432535759922362e-09,-1.209852621912389e-08,-2.642766974617078e-10,-1.1332915450951238e-09,-4.319207434499113e-10,-5.43253575993295e-09,4.173372156187072e-08,2.2225375045013554e-08,-2.1803140285636785e-09,-4.6034833277911197e-10,2.2407347842749556e-09,-1.2098526219222229e-08,2.2225375045022394e-08,7.874624792338993e-08,4.6841257521535154e-09,3.840774547628554e-09,1.9954718491779188e-08,-2.642766974533574e-10,-2.180314028571746e-09,4.684125752025236e-09,6.030128059146306e-08,0.0,0.0,0.0,0.0,0.0,0.0,0.0,0.0,0.0,0.0,0.0,0.0,0.0,0.0,0.0,0.0,0.0,0.0,0.0,0.0,0.0,0.0,0.0,0.0,0.0,0.0,0.0,0.0,0.0,0.0,0.0,0.0,0.0,0.0,0.0,0.0,0.0,0.0,0.0,0.0,0.0,0.0
1776755613174471140,29,1776755613174471140,camera_init,body,2.6040707359427158,0.48399110282813274,-0.3255314350444679,0.004300843793436368,-0.0015584307657484702,0.011399004282827406,0.9999245655236048,2.6013780668083532e-09,1.1683069395079904e-09,-2.6622543265602476e-10,-1.8896851885444498e-09,2.2191910925974362e-10,4.0470051424586975e-09,1.1683069395035205e-09,8.330846573170964e-09,-6.215363427747277e-10,-2.7188142341828514e-09,1.2534880173754943e-09,1.893628742184034e-08,-2.6622543265502884e-10,-6.215363427682223e-10,3.548482825001145e-09,-1.8015216116814726e-09,-5.333927545032845e-09,-4.878946284989408e-10,-1.889685188519373e-09,-2.7188142341617815e-09,-1.8015216115718778e-09,3.315467159150159e-08,2.330862173896425e-08,-8.707559689722345e-09,2.219191093151184e-10,1.2534880174294232e-09,-5.3339275447278734e-09,2.330862173895758e-08,6.839950049009786e-08,-7.06028413767656e-11,4.047005142409642e-09,1.8936287421757478e-08,-4.878946285362996e-10,-8.707559689740133e-09,-7.060284147431997e-11,5.9368185002248464e-08,0.0,0.0,0.0,0.0,0.0,0.0,0.0,0.0,0.0,0.0,0.0,0.0,0.0,0.0,0.0,0.0,0.0,0.0,0.0,0.0,0.0,0.0,0.0,0.0,0.0,0.0,0.0,0.0,0.0,0.0,0.0,0.0,0.0,0.0,0.0,0.0,0.0,0.0,0.0,0.0,0.0,0.0
1776755613274471045,30,1776755613274471045,camera_init,body,2.7711304528892615,0.5389043645479049,-0.33139045339444084,0.004282796115719332,-0.0012284259523430514,0.013502244721462931,0.9998989138980955,2.80067441341212e-09,1.3564486137008923e-09,-7.327207143590822e-11,-1.1594271997682946e-09,4.6010016805042114e-10,4.056533615529143e-09,1.3564486137031447e-09,9.301644636195957e-09,-9.941893146758072e-10,-1.5147611308778968e-09,3.3223268295594364e-09,2.0636634470741393e-08,-7.327207143674863e-11,-9.941893146752574e-10,8.668917286833546e-09,-4.9735170756589295e-09,-1.4219062720469489e-08,-1.7219052671128164e-09,-1.159427199765972e-09,-1.5147611308556622e-09,-4.973517075664058e-09,4.479803998238792e-08,2.2010481896272767e-08,-5.92109719093123e-09,4.60100168059315e-10,3.322326829620479e-09,-1.4219062720454656e-08,2.2010481896278233e-08,8.846027077625473e-08,5.53882661531734e-09,4.056533615539807e-09,2.063663447060998e-08,-1.7219052671025682e-09,-5.9210971909381455e-09,5.5388266151907056e-09,5.994153853468983e-08,0.0,0.0,0.0,0.0,0.0,0.0,0.0,0.0,0.0,0.0,0.0,0.0,0.0,0.0,0.0,0.0,0.0,0.0,0.0,0.0,0.0,0.0,0.0,0.0,0.0,0.0,0.0,0.0,0.0,0.0,0.0,0.0,0.0,0.0,0.0,0.0,0.0,0.0,0.0,0.0,0.0,0.0
1776755613374471188,31,1776755613374471188,camera_init,body,2.944094982674501,0.5917529343503365,-0.33634785176020016,0.004392931500996632,-0.001377550205870762,0.013982702372631255,0.9998916384001891,3.623427322020558e-09,2.2104283000196344e-09,5.054850807187706e-10,-1.583973457487386e-09,-3.695805372864528e-10,6.517118564639534e-09,2.210428299998944e-09,1.1573534048497664e-08,-4.335224115474735e-11,-5.74117851356527e-09,2.506052888181435e-09,2.4952581945147302e-08,5.054850807132893e-10,-4.33522411655586e-11,3.668721265461818e-09,-2.6235961963917053e-09,-7.1042147115924806e-09,-1.8734188927130707e-10,-1.5839734574873495e-09,-5.741178513560399e-09,-2.6235961964085732e-09,4.1354100878915777e-08,1.930151409646438e-08,-1.4778640409059372e-08,-3.695805372912174e-10,2.5060528882396983e-09,-7.1042147116509134e-09,1.930151409645059e-08,8.055582223018053e-08,4.10459770834732e-09,6.517118564589489e-09,2.4952581945038835e-08,-1.8734188923463774e-10,-1.4778640409067703e-08,4.104597708227203e-09,7.106811088278641e-08,0.0,0.0,0.0,0.0,0.0,0.0,0.0,0.0,0.0,0.0,0.0,0.0,0.0,0.0,0.0,0.0,0.0,0.0,0.0,0.0,0.0,0.0,0.0,0.0,0.0,0.0,0.0,0.0,0.0,0.0,0.0,0.0,0.0,0.0,0.0,0.0,0.0,0.0,0.0,0.0,0.0,0.0
1776755613474471092,32,1776755613474471092,camera_init,body,3.118212900787107,0.6523560417008756,-0.34188013030347575,0.003875183425368663,-0.001394317637060332,0.012946470306841557,0.9999077096104132,3.989715007255204e-09,2.2922845061641086e-09,-5.223245802793733e-10,-1.7468705611354623e-09,9.274365570892935e-10,7.056038523462109e-09,2.29228450616404e-09,1.2608567219444156e-08,-2.714092287783505e-09,-7.951586525394312e-10,3.109945833364714e-09,2.7104945530144395e-08,-5.223245802799862e-10,-2.714092287782669e-09,1.4120521208285197e-08,-1.0311732487910334e-08,-1.4160083505424046e-08,-4.697599636061415e-09,-1.7468705611301518e-09,-7.951586525361489e-10,-1.0311732487911027e-08,6.232873746955586e-08,4.740166983600853e-08,-2.715153116137608e-09,9.274365571144928e-10,3.1099458334424823e-09,-1.4160083505434037e-08,4.7401669836035303e-08,1.5366344174157317e-07,1.9745864785420896e-09,7.056038523461381e-09,2.710494553008348e-08,-4.697599636057226e-09,-2.7151531161807404e-09,1.9745864783090893e-09,7.584887274712606e-08,0.0,0.0,0.0,0.0,0.0,0.0,0.0,0.0,0.0,0.0,0.0,0.0,0.0,0.0,0.0,0.0,0.0,0.0,0.0,0.0,0.0,0.0,0.0,0.0,0.0,0.0,0.0,0.0,0.0,0.0,0.0,0.0,0.0,0.0,0.0,0.0,0.0,0.0,0.0,0.0,0.0,0.0
1776755613574471235,33,1776755613574471235,camera_init,body,3.2955874104200533,0.712832981772377,-0.34777892123115883,0.0027106305884436223,-0.0016572430288076256,0.013580495864315402,0.9999027333493182,3.8416863358558574e-09,1.8157969925409507e-09,6.567586059787937e-10,-1.600659459733792e-09,-7.145857441761683e-10,5.336042755782722e-09,1.8157969925444526e-09,1.524721783143732e-08,-1.1521049877998785e-09,-5.199150900020424e-09,1.8449436771039e-10,2.9088231588357678e-08,6.567586059752569e-10,-1.1521049878118822e-09,1.6082098990272793e-08,-2.6631656214294226e-09,-2.158109441739549e-08,-1.0964550278589168e-09,-1.6006594597280877e-09,-5.199150900019683e-09,-2.6631656214507076e-09,8.091433811002033e-08,3.812673885427154e-08,-9.81242686890208e-09,-7.145857441409106e-10,1.8449436777316473e-10,-2.1581094417463583e-08,3.812673885428025e-08,1.3861739902690573e-07,1.0128497711407229e-09,5.336042755827443e-09,2.9088231588513614e-08,-1.0964550278216854e-09,-9.81242686891024e-09,1.0128497709793714e-09,7.257344639391508e-08,0.0,0.0,0.0,0.0,0.0,0.0,0.0,0.0,0.0,0.0,0.0,0.0,0.0,0.0,0.0,0.0,0.0,0.0,0.0,0.0,0.0,0.0,0.0,0.0,0.0,0.0,0.0,0.0,0.0,0.0,0.0,0.0,0.0,0.0,0.0,0.0,0.0,0.0,0.0,0.0,0.0,0.0
1776755613674471140,34,1776755613674471140,camera_init,body,3.4801397078880605,0.7781536330196379,-0.35050425692305603,0.0019111529275591677,-0.0011290991510755771,0.014740265257484472,0.999888892432421,3.477680070039014e-09,1.6584407508056404e-09,-1.163621657275977e-09,-1.9481006200110385e-09,1.1024135087301535e-09,3.958260447416764e-09,1.6584407508160124e-09,1.3854935176331603e-08,-1.852377821215585e-09,-4.482419803867498e-09,3.70863650087547e-09,2.4564182638565572e-08,-1.1636216572771017e-09,-1.85237782121939e-09,2.0167545392310658e-08,2.7934980651624966e-09,-1.4717087496027503e-08,-3.3535486816846528e-09,-1.9481006200173714e-09,-4.4824198038614626e-09,2.793498065164912e-09,7.626965075052046e-08,2.537539564757338e-08,-1.0461196465002096e-08,1.102413508733224e-09,3.7086365009164287e-09,-1.4717087496029042e-08,2.5375395647580594e-08,1.1164937339696599e-07,4.919089181465438e-09,3.9582604474267e-09,2.4564182638552893e-08,-3.3535486816728944e-09,-1.0461196464999581e-08,4.9190891813614895e-09,5.8426193224119606e-08,0.0,0.0,0.0,0.0,0.0,0.0,0.0,0.0,0.0,0.0,0.0,0.0,0.0,0.0,0.0,0.0,0.0,0.0,0.0,0.0,0.0,0.0,0.0,0.0,0.0,0.0,0.0,0.0,0.0,0.0,0.0,0.0,0.0,0.0,0.0,0.0,0.0,0.0,0.0,0.0,0.0,0.0
1776755613774471045,35,1776755613774471045,camera_init,body,3.6719407313776213,0.8481614203923895,-0.3514884319262777,0.0015802586316172385,-0.0007528123699044011,0.014166880676054273,0.999898112583529,3.809643426365265e-09,1.6639817270590165e-09,2.1682732752635222e-11,-2.134660802987267e-09,-1.7886074845469916e-09,3.983098913677365e-09,1.6639817270775927e-09,1.4637925396857032e-08,-1.0909677638552952e-09,-4.77032407221969e-09,-1.7695048210830798e-09,2.508690632005958e-08,2.1682732751329724e-11,-1.0909677638610706e-09,1.5397965457509622e-08,3.1637717701791445e-09,-2.982901825126628e-08,-9.040196103545781e-10,-2.134660802999092e-09,-4.770324072191738e-09,3.163771770223143e-09,9.436912131373084e-08,6.32217980332913e-08,-9.15460400973021e-09,-1.788607484540427e-09,-1.7695048209659957e-09,-2.9829018251115644e-08,6.322179803332399e-08,2.647892811168828e-07,-6.403352061815797e-09,3.983098913695886e-09,2.5086906319971462e-08,-9.040196103252289e-10,-9.15460400976294e-09,-6.403352062068974e-09,5.757107170277103e-08,0.0,0.0,0.0,0.0,0.0,0.0,0.0,0.0,0.0,0.0,0.0,0.0,0.0,0.0,0.0,0.0,0.0,0.0,0.0,0.0,0.0,0.0,0.0,0.0,0.0,0.0,0.0,0.0,0.0,0.0,0.0,0.0,0.0,0.0,0.0,0.0,0.0,0.0,0.0,0.0,0.0,0.0
1776755613874471188,36,1776755613874471188,camera_init,body,3.8731835762428592,0.920085481314678,-0.34972991821893173,0.001798552825967096,-0.000662839221757425,0.012615077124647768,0.9999185895266862,5.006687971808698e-09,1.936509676975785e-09,-2.6817769464885104e-10,-1.7602343317853356e-09,-4.405485191508648e-09,3.8176075588754474e-09,1.9365096769750875e-09,1.7277299246068738e-08,-4.507928568955049e-09,-3.7081438631969416e-10,1.7670320824455934e-09,3.002874516912682e-08,-2.681776946520572e-10,-4.50792856895225e-09,4.5165472673707255e-08,4.491277545383539e-09,-2.990269395123099e-08,-7.314821432510923e-09,-1.7602343317839857e-09,-3.708143863200118e-10,4.4912775453937234e-09,1.1070647004930729e-07,5.357260853262814e-08,6.779279840580638e-10,-4.4054851914784726e-09,1.7670320825632284e-09,-2.990269395125859e-08,5.3572608532718906e-08,3.3775842307184917e-07,-2.253268053742384e-09,3.817607558875034e-09,3.0028745169115956e-08,-7.314821432476186e-09,6.779279840502155e-10,-2.2532680540601604e-09,6.873230985908958e-08,0.0,0.0,0.0,0.0,0.0,0.0,0.0,0.0,0.0,0.0,0.0,0.0,0.0,0.0,0.0,0.0,0.0,0.0,0.0,0.0,0.0,0.0,0.0,0.0,0.0,0.0,0.0,0.0,0.0,0.0,0.0,0.0,0.0,0.0,0.0,0.0,0.0,0.0,0.0,0.0,0.0,0.0
1776755613974471092,37,1776755613974471092,camera_init,body,4.076298463744194,0.9922354018366257,-0.3481192405029627,0.0017530418074358117,-0.0008751301792750981,0.013556475905794993,0.9999061870758706,6.572845494522963e-09,3.0647974937481367e-09,-2.0679803569846447e-09,-5.324993221536694e-09,-3.571126002777348e-10,6.78827664589375e-09,3.064797493747324e-09,2.2091713899110308e-08,-1.667550965048214e-09,-1.0383685783852486e-09,1.3042447747334313e-08,3.73999257270124e-08,-2.0679803569909528e-09,-1.6675509650954097e-09,7.103040730366186e-08,3.2984461241800805e-08,-8.908525587212912e-08,-2.8379445360555514e-09,-5.324993221542557e-09,-1.0383685784177535e-09,3.2984461241823596e-08,1.641619452023736e-07,4.257833490020059e-08,-9.214770072997213e-09,-3.5711260024194766e-10,1.3042447747510539e-08,-8.908525587205309e-08,4.2578334900291527e-08,4.365984005138158e-07,1.2502254157472122e-08,6.788276645878886e-09,3.73999257271705e-08,-2.8379445359517138e-09,-9.21477007297309e-09,1.2502254157043574e-08,8.314055789976355e-08,0.0,0.0,0.0,0.0,0.0,0.0,0.0,0.0,0.0,0.0,0.0,0.0,0.0,0.0,0.0,0.0,0.0,0.0,0.0,0.0,0.0,0.0,0.0,0.0,0.0,0.0,0.0,0.0,0.0,0.0,0.0,0.0,0.0,0.0,0.0,0.0,0.0,0.0,0.0,0.0,0.0,0.0
1776755614074471235,38,1776755614074471235,camera_init,body,4.286530048408621,1.0572721560262575,-0.3476571391633974,0.0012706029502180956,-0.0008022181501453297,0.014452241453965287,0.9998944317932452,8.483320642416528e-09,2.833879074476369e-09,-7.181786436004941e-10,-6.688116237963663e-09,-1.0963805806296246e-09,7.419594425528891e-09,2.833879074478612e-09,3.11254620639288e-08,4.283732488692063e-09,6.018698600848736e-09,9.92225783257444e-09,4.585316289524277e-08,-7.181786435917756e-10,4.283732488660017e-09,4.3724188517387387e-08,6.636283590358915e-08,-8.458119460553951e-08,6.255430131740194e-09,-6.688116237991559e-09,6.0186986007632915e-09,6.636283590363853e-08,2.0745279387376201e-07,-4.6258054388796964e-08,8.675744323275897e-10,-1.0963805806541886e-09,9.922257832650712e-09,-8.458119460474036e-08,-4.625805438864655e-08,3.9048998441097593e-07,4.6061933540717035e-09,7.419594425556917e-09,4.58531628953035e-08,6.2554301318058095e-09,8.67574432452044e-10,4.606193353653031e-09,9.412815476204953e-08,0.0,0.0,0.0,0.0,0.0,0.0,0.0,0.0,0.0,0.0,0.0,0.0,0.0,0.0,0.0,0.0,0.0,0.0,0.0,0.0,0.0,0.0,0.0,0.0,0.0,0.0,0.0,0.0,0.0,0.0,0.0,0.0,0.0,0.0,0.0,0.0,0.0,0.0,0.0,0.0,0.0,0.0
1776755614174471140,39,1776755614174471140,camera_init,body,4.5015491347091485,1.1250149906668432,-0.34664116166983383,0.0016332401965658409,-0.0006745572234750041,0.017138723179608448,0.9998515598161477,1.4394812497775479e-08,2.862033871460422e-09,6.220429228956754e-10,-8.401790528588486e-09,-1.640405933271324e-09,9.019869418279638e-09,2.862033871456688e-09,3.0858351706204614e-08,1.8081029766693784e-09,7.01493014198776e-10,1.4624745216262723e-08,5.0193646414277666e-08,6.220429228768256e-10,1.808102976586289e-09,8.433950250702092e-08,1.0232999038959458e-07,-9.490459723992598e-08,2.822277500220271e-09,-8.401790528536576e-09,7.014930141808824e-10,1.0232999038936035e-07,2.5890850085572996e-07,-1.2620183746607442e-08,-5.344505710984789e-09,-1.6404059332162668e-09,1.462474521644649e-08,-9.490459723993338e-08,-1.262018374648322e-08,2.9918513042094815e-07,2.335689840336419e-08,9.019869418279046e-09,5.0193646414442195e-08,2.822277500405366e-09,-5.344505710885258e-09,2.3356898403011972e-08,1.1571753068991455e-07,0.0,0.0,0.0,0.0,0.0,0.0,0.0,0.0,0.0,0.0,0.0,0.0,0.0,0.0,0.0,0.0,0.0,0.0,0.0,0.0,0.0,0.0,0.0,0.0,0.0,0.0,0.0,0.0,0.0,0.0,0.0,0.0,0.0,0.0,0.0,0.0,0.0,0.0,0.0,0.0,0.0,0.0
1776755614274471045,40,1776755614274471045,camera_init,body,4.718629393361628,1.1978790465151514,-0.3464222153957034,0.0016299752259292298,-0.0005327958031786398,0.018110317808167718,0.9998345241580134,1.4493985938909045e-08,4.722903598631304e-09,-5.1297778488419614e-11,-1.1733383625609386e-08,-5.630793125856916e-09,1.1638962024636031e-08,4.7229035986438624e-09,3.9309503357815565e-08,5.4903711200635436e-09,9.28579761188866e-09,2.0799983847870844e-08,5.869736320525975e-08,-5.12977784598855e-11,5.490371120033999e-09,4.4555141412834726e-08,6.722093946670571e-08,-7.405453205134538e-08,6.812295568781588e-09,-1.1733383625458697e-08,9.285797611774098e-09,6.722093946660124e-08,2.2590749489866162e-07,6.106856770178849e-09,2.8183274892458705e-09,-5.630793125827058e-09,2.0799983847957856e-08,-7.40545320516575e-08,6.1068567703319865e-09,3.719888635005221e-07,2.603971861991647e-08,1.1638962024667934e-08,5.869736320531203e-08,6.812295568884305e-09,2.818327489320181e-09,2.6039718619457723e-08,1.2322595401798088e-07,0.0,0.0,0.0,0.0,0.0,0.0,0.0,0.0,0.0,0.0,0.0,0.0,0.0,0.0,0.0,0.0,0.0,0.0,0.0,0.0,0.0,0.0,0.0,0.0,0.0,0.0,0.0,0.0,0.0,0.0,0.0,0.0,0.0,0.0,0.0,0.0,0.0,0.0,0.0,0.0,0.0,0.0
1776755614374471188,41,1776755614374471188,camera_init,body,4.936688938339439,1.2673835285598742,-0.346776856834925,0.0015661465118895807,-0.0011701121773086826,0.02122409928135665,0.9997728320134973,1.9522954995301433e-08,1.2465101301735845e-08,2.9096515374626367e-09,-4.1272574932972915e-09,-9.07758723219339e-09,2.5539230783058913e-08,1.24651013017293e-08,8.821750481751155e-08,-1.714863280397771e-09,3.1949847177123846e-08,5.318089184713714e-08,1.135848647707658e-07,2.9096515374264228e-09,-1.714863280590672e-09,1.1675514550666939e-07,8.66665326706843e-08,-1.4295429068840643e-07,-9.34395454393252e-10,-4.1272574933152976e-09,3.19498471770618e-08,8.666653267083902e-08,2.924520648964798e-07,3.953764532144334e-08,3.242477320862792e-08,-9.077587232068347e-09,5.318089184766725e-08,-1.4295429068824708e-07,3.9537645321811384e-08,5.132890307751663e-07,5.45667673171217e-08,2.5539230783000418e-08,1.1358486477073498e-07,-9.343954540834348e-10,3.2424773208748316e-08,5.456676731626294e-08,1.8953705549847074e-07,0.0,0.0,0.0,0.0,0.0,0.0,0.0,0.0,0.0,0.0,0.0,0.0,0.0,0.0,0.0,0.0,0.0,0.0,0.0,0.0,0.0,0.0,0.0,0.0,0.0,0.0,0.0,0.0,0.0,0.0,0.0,0.0,0.0,0.0,0.0,0.0,0.0,0.0,0.0,0.0,0.0,0.0
1776755614474471092,42,1776755614474471092,camera_init,body,5.156786397628922,1.3427503987620881,-0.34786755880599346,0.0014608842584960438,-0.00207449554482577,0.021589906329921593,0.9997636911941143,2.9307312258149522e-08,1.912044357634046e-08,7.030464317345896e-09,-4.6827915386440065e-09,-8.682591822793588e-09,2.9649628421080938e-08,1.9120443576332792e-08,6.853959624915254e-08,-6.375199209522983e-09,-6.137442852865205e-09,1.199879903720168e-08,9.088093247433201e-08,7.030464317300439e-09,-6.375199209670765e-09,1.1824429745463567e-07,1.2896359732646784e-07,-1.76710743251998e-07,1.6267816894158524e-09,-4.682791538703107e-09,-6.137442853058329e-09,1.2896359732651268e-07,2.976982272730694e-07,-2.059952514795314e-07,-7.0670004005216795e-09,-8.682591822680298e-09,1.1998799037612391e-08,-1.7671074325186222e-07,-2.0599525147944976e-07,4.854396750949256e-07,8.595171971909443e-09,2.9649628421072133e-08,9.088093247438967e-08,1.6267816896890855e-09,-7.0670004001554965e-09,8.595171971245449e-09,1.646324164336626e-07,0.0,0.0,0.0,0.0,0.0,0.0,0.0,0.0,0.0,0.0,0.0,0.0,0.0,0.0,0.0,0.0,0.0,0.0,0.0,0.0,0.0,0.0,0.0,0.0,0.0,0.0,0.0,0.0,0.0,0.0,0.0,0.0,0.0,0.0,0.0,0.0,0.0,0.0,0.0,0.0,0.0,0.0
1776755614574471235,43,1776755614574471235,camera_init,body,5.37832564061393,1.422102356298125,-0.3478025145239507,0.0007129903803984907,-0.0024310771923496508,0.02130015565440023,0.9997699159694189,4.860698728309184e-08,2.2947678694789798e-08,-2.5688369597707972e-08,-5.566063855937029e-08,1.6292793361622786e-08,9.868127370099483e-09,2.2947678694782846e-08,1.1618089912159338e-07,-2.5813293746703528e-08,-1.582733886910576e-08,6.823151191761044e-08,1.229579275014298e-07,-2.5688369597730475e-08,-2.581329374691587e-08,1.5873706968379822e-07,1.6839413565778e-07,-1.8166813025173126e-07,-3.8875321930787685e-09,-5.5660638559382724e-08,-1.5827338869294226e-08,1.6839413565787197e-07,4.170525939634791e-07,-8.576887104568423e-08,2.6664579870442876e-08,1.6292793361649997e-08,6.823151191799373e-08,-1.8166813025144348e-07,-8.576887104528009e-08,4.708997096550992e-07,5.413236567160766e-08,9.86812737009317e-09,1.229579275013386e-07,-3.8875321927527145e-09,2.6664579870695854e-08,5.4132365670909286e-08,1.9315224990139744e-07,0.0,0.0,0.0,0.0,0.0,0.0,0.0,0.0,0.0,0.0,0.0,0.0,0.0,0.0,0.0,0.0,0.0,0.0,0.0,0.0,0.0,0.0,0.0,0.0,0.0,0.0,0.0,0.0,0.0,0.0,0.0,0.0,0.0,0.0,0.0,0.0,0.0,0.0,0.0,0.0,0.0,0.0
1776755614674471140,44,1776755614674471140,camera_init,body,5.603990807946596,1.5005176767527737,-0.34942836420989226,0.0013813603636256395,-0.004051681084460005,0.021937881631277717,0.9997501713295511,3.8915194966193136e-08,3.962784769124661e-10,-3.108904898057604e-09,-1.6082198870964488e-08,-4.712242359824758e-10,-7.46266377260812e-09,3.9627847690512075e-10,1.0873544554362326e-07,-2.807749334953253e-08,-6.704402036905392e-10,8.986564908015024e-08,1.0636509832935507e-07,-3.108904898051215e-09,-2.8077493349639278e-08,1.064845744168155e-07,1.3446011670196926e-07,-1.0743107831840572e-07,-2.5273924843669605e-08,-1.6082198870969928e-08,-6.704402037754542e-10,1.344601167020767e-07,3.607103643305439e-07,3.1684647996166675e-08,-3.5679480646108056e-09,-4.71224236005981e-10,8.986564908033286e-08,-1.0743107831834227e-07,3.1684647996302174e-08,4.056175221016359e-07,7.316771653193719e-08,-7.46266377261897e-09,1.0636509832928875e-07,-2.5273924843506737e-08,-3.5679480645305227e-09,7.316771653151041e-08,1.7374780923762453e-07,0.0,0.0,0.0,0.0,0.0,0.0,0.0,0.0,0.0,0.0,0.0,0.0,0.0,0.0,0.0,0.0,0.0,0.0,0.0,0.0,0.0,0.0,0.0,0.0,0.0,0.0,0.0,0.0,0.0,0.0,0.0,0.0,0.0,0.0,0.0,0.0,0.0,0.0,0.0,0.0,0.0,0.0
1776755614774471045,45,1776755614774471045,camera_init,body,5.837657479316384,1.585027205116162,-0.3550280998760584,-0.0004997211050159388,-0.006779981921240524,0.02300354396549379,0.9997122681496865,4.8881965538453954e-08,1.3030894213749334e-08,-1.319102801173445e-08,-3.517891825091169e-08,-5.633804051605919e-09,6.691644115866814e-09,1.3030894213752325e-08,1.1063318107342699e-07,-2.2227446077179757e-08,-8.068458478719421e-10,6.559589971880034e-08,1.0809492432830614e-07,-1.3191028011738056e-08,-2.2227446077264547e-08,8.17457041010563e-08,9.669370161825592e-08,-6.649074825361084e-08,-1.9879541025754172e-08,-3.517891825092426e-08,-8.068458479405518e-10,9.669370161826336e-08,3.0181382130449994e-07,4.469874797326249e-08,3.898515455865444e-09,-5.633804051600625e-09,6.559589971898108e-08,-6.649074825354234e-08,4.4698747973387404e-08,3.160982114270285e-07,7.542653361702134e-08,6.69164411586448e-09,1.080949243282838e-07,-1.9879541025621965e-08,3.898515455948606e-09,7.542653361667383e-08,1.8131215102629857e-07,0.0,0.0,0.0,0.0,0.0,0.0,0.0,0.0,0.0,0.0,0.0,0.0,0.0,0.0,0.0,0.0,0.0,0.0,0.0,0.0,0.0,0.0,0.0,0.0,0.0,0.0,0.0,0.0,0.0,0.0,0.0,0.0,0.0,0.0,0.0,0.0,0.0,0.0,0.0,0.0,0.0,0.0
1776755614874471188,46,1776755614874471188,camera_init,body,6.069506351616079,1.6734527711769147,-0.3622738139217668,-0.0006857604772122039,-0.009054238647210196,0.02312997064151893,0.9996912298070877,1.0009434640150265e-07,-5.706992731399626e-09,-4.360363930177609e-09,-3.837651045364312e-08,-8.763197426355235e-09,-6.651280416343208e-08,-5.706992731441142e-09,1.3873017993425483e-07,-9.947467508609062e-09,1.1431150582707455e-08,7.969568767371975e-08,1.4399820112535268e-07,-4.360363930100953e-09,-9.947467508760658e-09,8.43171312059338e-08,1.3664060110724302e-07,-9.647068346272413e-08,-1.6634123046861355e-08,-3.837651045353868e-08,1.1431150582463404e-08,1.3664060110730808e-07,4.587850478977135e-07,-5.1491779488001146e-08,9.980838082132867e-10,-8.763197426576311e-09,7.969568767410767e-08,-9.647068346266359e-08,-5.149177948768731e-08,4.1926393799854226e-07,9.225055901756554e-08,-6.651280416349317e-08,1.4399820112523674e-07,-1.6634123046541216e-08,9.980838086877356e-10,9.225055901662986e-08,3.1853896863863913e-07,0.0,0.0,0.0,0.0,0.0,0.0,0.0,0.0,0.0,0.0,0.0,0.0,0.0,0.0,0.0,0.0,0.0,0.0,0.0,0.0,0.0,0.0,0.0,0.0,0.0,0.0,0.0,0.0,0.0,0.0,0.0,0.0,0.0,0.0,0.0,0.0,0.0,0.0,0.0,0.0,0.0,0.0
1776755614974471092,47,1776755614974471092,camera_init,body,6.309049303434223,1.763202084845215,-0.36807388902231875,-0.0018646651934258207,-0.009088884806830098,0.023605648341647516,0.9996782925336798,8.741372713859548e-08,-3.2885092355076836e-08,1.1799869461672847e-09,-2.746426654895284e-08,-8.367813604853968e-09,-7.314689270828804e-08,-3.288509235508842e-08,1.1379997797679659e-07,1.4103010272596392e-08,3.317983070459192e-08,4.338969723715292e-08,1.2668475195314838e-07,1.1799869462125348e-09,1.410301027252029e-08,5.004759639760893e-08,8.240840509413076e-08,-6.41744316764767e-08,1.5493777612776226e-08,-2.7464266548970125e-08,3.317983070454671e-08,8.240840509432508e-08,3.3725528670646226e-07,7.18715420737897e-08,6.387430127594042e-08,-8.36781360503555e-09,4.3389697237443855e-08,-6.417443167643616e-08,7.187154207406168e-08,4.518110050918955e-07,7.77746661671962e-08,-7.314689270831777e-08,1.2668475195313446e-07,1.5493777612946152e-08,6.387430127599331e-08,7.777466616639541e-08,3.42798466776901e-07,0.0,0.0,0.0,0.0,0.0,0.0,0.0,0.0,0.0,0.0,0.0,0.0,0.0,0.0,0.0,0.0,0.0,0.0,0.0,0.0,0.0,0.0,0.0,0.0,0.0,0.0,0.0,0.0,0.0,0.0,0.0,0.0,0.0,0.0,0.0,0.0,0.0,0.0,0.0,0.0,0.0,0.0
1776755615074471235,48,1776755615074471235,camera_init,body,6.552590043419121,1.8547761692633524,-0.37332211451452346,-0.0025321794929143216,-0.008452574838663468,0.023636842597905865,0.999681670191873,5.4419473949848004e-08,-9.306817261709242e-09,5.496196579630596e-09,1.761760715248983e-09,4.034196866167783e-09,-7.361366055402935e-08,-9.306817261667042e-09,1.3025564490706543e-07,1.58757231740262e-08,-6.304704479359517e-09,2.997606948335375e-08,1.468080112821786e-07,5.496196579696386e-09,1.587572317388753e-08,9.773889903373786e-08,1.3709780238910687e-07,-1.1602636835034967e-07,4.877807760145516e-09,1.761760715286345e-09,-6.304704479484984e-09,1.3709780238906468e-07,3.4187541899993345e-07,-6.44414925083792e-08,-7.639454922240353e-09,4.034196866009494e-09,2.997606948364013e-08,-1.160263683502186e-07,-6.444149250826916e-08,4.0308101198326215e-07,4.8660647450441644e-08,-7.36136605539881e-08,1.468080112821356e-07,4.877807760470968e-09,-7.63945492190207e-09,4.866064744968985e-08,3.4946708878932273e-07,0.0,0.0,0.0,0.0,0.0,0.0,0.0,0.0,0.0,0.0,0.0,0.0,0.0,0.0,0.0,0.0,0.0,0.0,0.0,0.0,0.0,0.0,0.0,0.0,0.0,0.0,0.0,0.0,0.0,0.0,0.0,0.0,0.0,0.0,0.0,0.0,0.0,0.0,0.0,0.0,0.0,0.0
