%time,field.header.seq,field.header.stamp,field.header.frame_id,field.child_frame_id,field.pose.pose.position.x,field.pose.pose.position.y,field.pose.pose.position.z,field.pose.pose.orientation.x,field.pose.pose.orientation.y,field.pose.pose.orientation.z,field.pose.pose.orientation.w,field.pose.covariance0,field.pose.covariance1,field.pose.covariance2,field.pose.covariance3,field.pose.covariance4,field.pose.covariance5,field.pose.covariance6,field.pose.covariance7,field.pose.covariance8,field.pose.covariance9,field.pose.covariance10,field.pose.covariance11,field.pose.covariance12,field.pose.covariance13,field.pose.covariance14,field.pose.covariance15,field.pose.covariance16,field.pose.covariance17,field.pose.covariance18,field.pose.covariance19,field.pose.covariance20,field.pose.covariance21,field.pose.covariance22,field.pose.covariance23,field.pose.covariance24,field.pose.covariance25,field.pose.covariance26,field.pose.covariance27,field.pose.covariance28,field.pose.covariance29,field.pose.covariance30,field.pose.covariance31,field.pose.covariance32,field.pose.covariance33,field.pose.covariance34,field.pose.covariance35,field.twist.twist.linear.x,field.twist.twist.linear.y,field.twist.twist.linear.z,field.twist.twist.angular.x,field.twist.twist.angular.y,field.twist.twist.angular.z,field.twist.covariance0,field.twist.covariance1,field.twist.covariance2,field.twist.covariance3,field.twist.covariance4,field.twist.covariance5,field.twist.covariance6,field.twist.covariance7,field.twist.covariance8,field.twist.covariance9,field.twist.covariance10,field.twist.covariance11,field.twist.covariance12,field.twist.covariance13,field.twist.covariance14,field.twist.covariance15,field.twist.covariance16,field.twist.covariance17,field.twist.covariance18,field.twist.covariance19,field.twist.covariance20,field.twist.covariance21,field.twist.covariance22,field.twist.covariance23,field.twist.covariance24,field.twist.covariance25,field.twist.covariance26,field.twist.covariance27,field.twist.covariance28,field.twist.covariance29,field.twist.covariance30,field.twist.covariance31,field.twist.covariance32,field.twist.covariance33,field.twist.covariance34,field.twist.covariance35
1776753558061759472,0,1776753558061759472,camera_init,body,0.11815483213041034,-0.02600108788344802,0.00020775687775635493,1.1113266649631075e-05,2.2553630545665007e-05,0.0069549804133198605,0.9999758135151467,0.0,0.0,0.0,0.0,0.0,0.0,0.0,0.0,0.0,0.0,0.0,0.0,0.0,0.0,0.0,0.0,0.0,0.0,0.0,0.0,0.0,0.0,0.0,0.0,0.0,0.0,0.0,0.0,0.0,0.0,0.0,0.0,0.0,0.0,0.0,0.0,0.0,0.0,0.0,0.0,0.0,0.0,0.0,0.0,0.0,0.0,0.0,0.0,0.0,0.0,0.0,0.0,0.0,0.0,0.0,0.0,0.0,0.0,0.0,0.0,0.0,0.0,0.0,0.0,0.0,0.0,0.0,0.0,0.0,0.0,0.0,0.0,0.0,0.0,0.0,0.0,0.0,0.0
1776753558161759615,1,1776753558161759615,camera_init,body,0.2340136337988227,-0.0642803714002376,0.0012937907410490372,1.6259012582327427e-06,0.0001248573170331888,0.013623188765647283,0.999907192261294,1.503917663736587e-07,6.1469403653963785e-09,1.9845262433200562e-10,-4.41137245959719e-09,8.954994842880204e-08,8.391026077331538e-08,6.146940480038356e-09,2.290398763982182e-07,4.778316336289801e-10,-1.3720802524708198e-07,-9.415135071317443e-10,9.70766681904707e-07,1.9845254284735007e-10,4.778316268307069e-10,2.1312508402537844e-07,-7.249113307408369e-08,-9.044798663080362e-07,1.9127869708204866e-09,-4.411372440081551e-09,-1.3720802433114798e-07,-7.24911332273056e-08,1.7723880878506293e-06,3.450920015929393e-07,-5.811792819729885e-07,8.954994842880204e-08,-9.415135650281403e-10,-9.044798688127271e-07,3.450920016570553e-07,6.052029673186965e-06,3.136121694636199e-08,8.39102612437755e-08,9.707666762590916e-07,1.9127870039905396e-09,-5.811792805468005e-07,3.1361217033034965e-08,4.975666240580878e-06,0.0,0.0,0.0,0.0,0.0,0.0,0.0,0.0,0.0,0.0,0.0,0.0,0.0,0.0,0.0,0.0,0.0,0.0,0.0,0.0,0.0,0.0,0.0,0.0,0.0,0.0,0.0,0.0,0.0,0.0,0.0,0.0,0.0,0.0,0.0,0.0,0.0,0.0,0.0,0.0,0.0,0.0
1776753558261759520,2,1776753558261759520,camera_init,body,0.3497330152094878,-0.11184009269105295,0.001842387062896342,2.0626581282342232e-05,0.00015776163669626632,0.020166286090999814,0.99979662711529,1.4954407681330094e-07,9.587463140739587e-09,8.695102732508275e-10,-1.0013085926882812e-08,8.410591512377156e-08,9.75767296367819e-08,9.587463140751277e-09,2.3203986202393337e-07,1.76571877313991e-09,-1.409290768101521e-07,-7.684675925698357e-09,9.60714902243825e-07,8.695102732438161e-10,1.7657187731404777e-09,2.0644018796652603e-07,-6.667960749371273e-08,-8.321378691574434e-07,9.424810320694685e-09,-1.0013085926812308e-08,-1.4092907680949066e-07,-6.667960749348292e-08,1.781921563519251e-06,3.2783690733681085e-07,-5.909050236162289e-07,8.410591512343338e-08,-7.684675925700144e-09,-8.321378691563549e-07,3.278369073366916e-07,5.562415341197821e-06,-6.931748701858691e-09,9.75767296362171e-08,9.607149022418737e-07,9.424810320676694e-09,-5.909050236156306e-07,-6.931748702177897e-09,4.8379140122657704e-06,0.0,0.0,0.0,0.0,0.0,0.0,0.0,0.0,0.0,0.0,0.0,0.0,0.0,0.0,0.0,0.0,0.0,0.0,0.0,0.0,0.0,0.0,0.0,0.0,0.0,0.0,0.0,0.0,0.0,0.0,0.0,0.0,0.0,0.0,0.0,0.0,0.0,0.0,0.0,0.0,0.0,0.0
1776753558361759663,3,1776753558361759663,camera_init,body,0.46514553202300873,-0.16540817283521708,0.0019743424585407835,1.9699342917504274e-05,0.00017159979991479213,0.026631280090360934,0.9996453096404736,1.4592403762982533e-07,7.311871324950872e-09,7.157752793912706e-10,-8.361490600145093e-09,8.10832745858506e-08,9.250866630252507e-08,7.311871324944245e-09,1.9838059401988938e-07,7.439994893953356e-10,-1.1259629388001502e-07,-3.7216900389731892e-09,7.673968512907044e-07,7.157752794130825e-10,7.439994895017696e-10,1.876280928252307e-07,-5.181895079343739e-08,-6.842494747960281e-07,3.918614184111733e-09,-8.361490600932397e-09,-1.1259629388633315e-07,-5.181895079321831e-08,1.464862223998457e-06,2.6314844732083824e-07,-4.480164669435769e-07,8.108327458580052e-08,-3.72169003933472e-09,-6.842494747960611e-07,2.631484473224453e-07,4.549916930148227e-06,1.7111883967651862e-08,9.250866630250734e-08,7.673968512903199e-07,3.918614183597905e-09,-4.48016466912152e-07,1.7111883969363233e-08,3.7960254785294075e-06,0.0,0.0,0.0,0.0,0.0,0.0,0.0,0.0,0.0,0.0,0.0,0.0,0.0,0.0,0.0,0.0,0.0,0.0,0.0,0.0,0.0,0.0,0.0,0.0,0.0,0.0,0.0,0.0,0.0,0.0,0.0,0.0,0.0,0.0,0.0,0.0,0.0,0.0,0.0,0.0,0.0,0.0
1776753558461759567,4,1776753558461759567,camera_init,body,0.5805813993514529,-0.221879648470616,0.0018492898699532755,3.4404950929193195e-05,0.00016398488236265388,0.03328522082821848,0.9994458794750608,1.43711309791777e-07,5.620389557706274e-09,2.747531532074396e-09,-9.08272851460092e-09,6.58296759492056e-08,7.717383496957663e-08,5.62038955771308e-09,1.7682511619845621e-07,5.751514405280678e-10,-9.661315559444161e-08,-4.595067962244933e-09,6.440108491640264e-07,2.7475315320845265e-09,5.751514406108431e-10,1.7915179212928725e-07,-3.357450742542592e-08,-6.060824586211455e-07,4.2322817587450675e-09,-9.082728515456085e-09,-9.661315560136663e-08,-3.357450742522705e-08,1.3193196241828298e-06,1.944663562833459e-07,-3.733047016256199e-07,6.5829675949139e-08,-4.595067962661634e-09,-6.060824586209629e-07,1.9446635628489756e-07,4.068995619516627e-06,2.7236569127341444e-09,7.717383496954313e-08,6.440108491635369e-07,4.232281758353082e-09,-3.733047015915997e-07,2.7236569146451963e-09,3.130086051152014e-06,0.0,0.0,0.0,0.0,0.0,0.0,0.0,0.0,0.0,0.0,0.0,0.0,0.0,0.0,0.0,0.0,0.0,0.0,0.0,0.0,0.0,0.0,0.0,0.0,0.0,0.0,0.0,0.0,0.0,0.0,0.0,0.0,0.0,0.0,0.0,0.0,0.0,0.0,0.0,0.0,0.0,0.0
1776753558561759472,5,1776753558561759472,camera_init,body,0.6964651805270097,-0.2755108092566972,0.0017706768678443093,9.856816964720912e-06,0.0001537209778163039,0.04025436880886249,0.9991894525386593,1.451529973143072e-07,3.726981014855747e-09,3.7938570730919535e-09,-8.985352580882163e-09,5.956126477868916e-08,6.46339589256563e-08,3.726981014864891e-09,1.6792602784703484e-07,2.4336676367750107e-10,-8.965067238844842e-08,-5.100729289012423e-09,5.79204396058945e-07,3.793857073099695e-09,2.433667637358952e-10,1.7790218572520357e-07,-2.2396794435608417e-08,-5.550732274894978e-07,3.1597809043050238e-09,-8.985352581247532e-09,-8.96506723916302e-08,-2.2396794435506333e-08,1.2752133317162636e-06,1.4750715363496737e-07,-3.3142312959930425e-07,5.956126477864511e-08,-5.1007292894077755e-09,-5.550732274894445e-07,1.475071536357559e-07,3.727402466378941e-06,-3.4847866994864955e-09,6.463395892563885e-08,5.792043960587567e-07,3.1597809040304788e-09,-3.3142312958397856e-07,-3.4847866976487483e-09,2.7613848976921277e-06,0.0,0.0,0.0,0.0,0.0,0.0,0.0,0.0,0.0,0.0,0.0,0.0,0.0,0.0,0.0,0.0,0.0,0.0,0.0,0.0,0.0,0.0,0.0,0.0,0.0,0.0,0.0,0.0,0.0,0.0,0.0,0.0,0.0,0.0,0.0,0.0,0.0,0.0,0.0,0.0,0.0,0.0
1776753558661759615,6,1776753558661759615,camera_init,body,0.8131151178978288,-0.3218266488359814,0.0017901409429403748,-7.849205878931743e-05,0.00017478246329561336,0.04753387660054424,0.9988696080397141,1.482179778379138e-07,3.0787540784332508e-09,4.433742310262401e-09,-9.517085084079749e-09,5.8305937338458566e-08,5.9018756656000894e-08,3.0787540784375463e-09,1.6810604787018802e-07,-1.8780282927225948e-10,-8.68467135798454e-08,-5.972965265786732e-09,5.568093373408619e-07,4.4337423102669186e-09,-1.8780282923537162e-10,1.7577334921547403e-07,-2.2004188905445716e-08,-5.614103191850277e-07,2.276563164700538e-09,-9.5170850841123e-09,-8.68467135801298e-08,-2.2004188905419203e-08,1.2756083840677517e-06,1.4462699859812489e-07,-3.090128638496962e-07,5.83059373384448e-08,-5.972965266033218e-09,-5.614103191851298e-07,1.4462699859833466e-07,3.7214414292131117e-06,-1.1622577874785573e-08,5.901875665600046e-08,5.568093373406256e-07,2.276563164529415e-09,-3.0901286384832737e-07,-1.1622577873650405e-08,2.6098088337268027e-06,0.0,0.0,0.0,0.0,0.0,0.0,0.0,0.0,0.0,0.0,0.0,0.0,0.0,0.0,0.0,0.0,0.0,0.0,0.0,0.0,0.0,0.0,0.0,0.0,0.0,0.0,0.0,0.0,0.0,0.0,0.0,0.0,0.0,0.0,0.0,0.0,0.0,0.0,0.0,0.0,0.0,0.0
1776753558761759520,7,1776753558761759520,camera_init,body,0.9314379296732191,-0.35581017813614835,0.0018724905829601728,-0.00013483350268215906,0.00018663852401459984,0.055117958786149265,0.9984798233340699,1.502897350398781e-07,2.0331515939307495e-09,4.356527669486023e-09,-8.754495847155869e-09,6.024494979100042e-08,5.349594835426897e-08,2.03315159393604e-09,1.7329328862671534e-07,-1.591228997320138e-11,-8.901360971649155e-08,-9.257487832992788e-09,5.577440026102028e-07,4.356527669488871e-09,-1.591228996147806e-11,1.8145453499860559e-07,-1.6256835593792567e-08,-5.755333514771684e-07,2.3351275061942014e-09,-8.754495847122292e-09,-8.901360971610838e-08,-1.6256835593781615e-08,1.271485410837742e-06,1.333820959944233e-07,-3.0690663266002496e-07,6.024494979097617e-08,-9.257487833061861e-09,-5.755333514771055e-07,1.3338209599445718e-07,3.819000840496078e-06,-2.054055598104118e-08,5.3495948354281306e-08,5.577440026101102e-07,2.335127506142066e-09,-3.0690663266176217e-07,-2.0540555980731323e-08,2.5668671968704576e-06,0.0,0.0,0.0,0.0,0.0,0.0,0.0,0.0,0.0,0.0,0.0,0.0,0.0,0.0,0.0,0.0,0.0,0.0,0.0,0.0,0.0,0.0,0.0,0.0,0.0,0.0,0.0,0.0,0.0,0.0,0.0,0.0,0.0,0.0,0.0,0.0,0.0,0.0,0.0,0.0,0.0,0.0
1776753558861759663,8,1776753558861759663,camera_init,body,1.0514482103534344,-0.37463162129391947,0.0015791132532374773,-0.00010893513181604545,0.0001689176895276387,0.06287002660764154,0.9980217028473409,1.512385055572356e-07,2.2894696248127286e-09,3.6777947531779665e-09,-1.1328781211107565e-08,5.991975660564204e-08,4.817584693741034e-08,2.2894696248147685e-09,1.7927456088972273e-07,-2.345583901543416e-10,-9.329440949667647e-08,-8.811703768674122e-09,5.615955065831579e-07,3.677794753177299e-09,-2.345583901540224e-10,1.87781929727554e-07,-1.6546331019827232e-09,-5.762981383558445e-07,2.068238053520781e-09,-1.1328781211105937e-08,-9.329440949664185e-08,-1.6546331019727011e-09,1.2473362651268924e-06,6.1723997913743e-08,-3.119333775934114e-07,5.991975660563061e-08,-8.81170376867305e-09,-5.762981383558829e-07,6.172399791380373e-08,3.785608982416014e-06,-1.7493173831667808e-08,4.817584693738616e-08,5.615955065828644e-07,2.0682380535200502e-09,-3.1193337759338304e-07,-1.7493173831681056e-08,2.527579111639445e-06,0.0,0.0,0.0,0.0,0.0,0.0,0.0,0.0,0.0,0.0,0.0,0.0,0.0,0.0,0.0,0.0,0.0,0.0,0.0,0.0,0.0,0.0,0.0,0.0,0.0,0.0,0.0,0.0,0.0,0.0,0.0,0.0,0.0,0.0,0.0,0.0,0.0,0.0,0.0,0.0,0.0,0.0
1776753558961759567,9,1776753558961759567,camera_init,body,1.1722354401620443,-0.37265518190428554,0.0013360011326289457,-0.00015782385902291248,0.0001519278972839623,0.07034677185369134,0.9975225730274525,1.5719124196048522e-07,-1.454582955047819e-09,4.173789364725234e-09,-1.0355611419132438e-08,5.1269247229211433e-08,3.656426533226857e-08,-1.4545829550484432e-09,1.8744859980779658e-07,-8.939958485129881e-10,-9.77862698955728e-08,-6.478906206326894e-09,5.738968042050409e-07,4.1737893647205224e-09,-8.939958485138136e-10,1.877763748224192e-07,-3.4263105341266324e-09,-5.728556073158506e-07,-1.0410823530464551e-09,-1.0355611419159715e-08,-9.778626989599357e-08,-3.426310534106886e-09,1.22488434959238e-06,3.9670702117368316e-08,-3.242834212408112e-07,5.126924722921249e-08,-6.4789062063253454e-09,-5.728556073157785e-07,3.9670702117486794e-08,3.7753171665010487e-06,-6.773322395997889e-09,3.656426533225982e-08,5.738968042051399e-07,-1.041082353039582e-09,-3.242834212389958e-07,-6.773322396018982e-09,2.5484818500937202e-06,0.0,0.0,0.0,0.0,0.0,0.0,0.0,0.0,0.0,0.0,0.0,0.0,0.0,0.0,0.0,0.0,0.0,0.0,0.0,0.0,0.0,0.0,0.0,0.0,0.0,0.0,0.0,0.0,0.0,0.0,0.0,0.0,0.0,0.0,0.0,0.0,0.0,0.0,0.0,0.0,0.0,0.0
1776753559061759472,10,1776753559061759472,camera_init,body,1.2940774137400595,-0.3518386993477231,0.0013335598124173387,-0.00017415324234006907,0.0001520527623670934,0.07752364161518938,0.9969904871869774,1.616691642304023e-07,-1.0556797821552992e-09,4.804484404732106e-09,-1.192397620279099e-08,5.151858213376812e-08,4.166387561534342e-08,-1.0556797821578926e-09,1.9761750176251037e-07,-8.430746337425934e-10,-1.0223112870823982e-07,-7.568545521426796e-09,5.894737531661005e-07,4.804484404731955e-09,-8.43074633734098e-10,1.9501953606504744e-07,-1.1978441675714854e-08,-5.844391907735782e-07,-7.64002341723427e-10,-1.1923976202832958e-08,-1.022311287088193e-07,-1.1978441675685979e-08,1.2415423362390722e-06,7.543891063540093e-08,-3.349800231758431e-07,5.15185821337624e-08,-7.568545521483216e-09,-5.84439190773434e-07,7.543891063556192e-08,3.774617804083144e-06,-8.168900750383242e-09,4.1663875615321345e-08,5.89473753166053e-07,-7.640023417565388e-10,-3.3498002317330916e-07,-8.168900750174845e-09,2.56979565358457e-06,0.0,0.0,0.0,0.0,0.0,0.0,0.0,0.0,0.0,0.0,0.0,0.0,0.0,0.0,0.0,0.0,0.0,0.0,0.0,0.0,0.0,0.0,0.0,0.0,0.0,0.0,0.0,0.0,0.0,0.0,0.0,0.0,0.0,0.0,0.0,0.0,0.0,0.0,0.0,0.0,0.0,0.0
1776753559161759615,11,1776753559161759615,camera_init,body,1.4166962611544205,-0.3161258423096746,0.0013443683253832866,-0.00018072023513634046,0.00016311215174665477,0.08439178167553366,0.9964326208631736,1.652027732081392e-07,-3.9737281670145914e-09,4.804168888827249e-09,-1.1524335004989767e-08,5.250024391036619e-08,3.9542644821727717e-08,-3.973728167017464e-09,2.0771305153136045e-07,-5.082853830868089e-10,-1.0588261598039845e-07,-1.1625033690362266e-08,6.033026212154288e-07,4.804168888826193e-09,-5.082853830767406e-10,1.94510785520019e-07,-8.762962316395769e-09,-5.713838984282069e-07,3.0700067216570956e-10,-1.1524335005028016e-08,-1.0588261598095188e-07,-8.762962316365524e-09,1.2341182853296948e-06,7.307034595809944e-08,-3.386169059175486e-07,5.250024391034184e-08,-1.1625033690427607e-08,-5.7138389842778e-07,7.307034595825054e-08,3.7444927124924312e-06,-1.7043941201586497e-08,3.954264482173489e-08,6.033026212155812e-07,3.0700067212507865e-10,-3.386169059151512e-07,-1.7043941201301173e-08,2.584171130420267e-06,0.0,0.0,0.0,0.0,0.0,0.0,0.0,0.0,0.0,0.0,0.0,0.0,0.0,0.0,0.0,0.0,0.0,0.0,0.0,0.0,0.0,0.0,0.0,0.0,0.0,0.0,0.0,0.0,0.0,0.0,0.0,0.0,0.0,0.0,0.0,0.0,0.0,0.0,0.0,0.0,0.0,0.0
1776753559261759520,12,1776753559261759520,camera_init,body,1.540119791578212,-0.2702311967613202,0.0012746601766473894,-0.00016042094874288556,0.00016587173730419158,0.09097306711195532,0.9958533264552226,1.6262070038905923e-07,-3.949616389316585e-09,4.55951948826336e-09,-1.3449868776120278e-08,5.39352082733505e-08,4.900874837843279e-08,-3.949616389323415e-09,2.1554715692021262e-07,-7.958966113949998e-10,-1.0897929204279283e-07,-1.3523860661594808e-08,6.069050473141758e-07,4.559519488262995e-09,-7.958966113812499e-10,1.977981075440273e-07,-1.5319304740714673e-08,-5.68682902120051e-07,7.568043990223737e-10,-1.3449868776161491e-08,-1.0897929204327522e-07,-1.5319304740688127e-08,1.2097606429934917e-06,9.873333463420341e-08,-3.3861446024133315e-07,5.3935208273333455e-08,-1.352386066167877e-08,-5.686829021199619e-07,9.87333346343456e-08,3.7926538897977585e-06,-2.097375676663162e-08,4.900874837840317e-08,6.069050473141171e-07,7.568043989670676e-10,-3.3861446023940223e-07,-2.0973756766279276e-08,2.551789053299914e-06,0.0,0.0,0.0,0.0,0.0,0.0,0.0,0.0,0.0,0.0,0.0,0.0,0.0,0.0,0.0,0.0,0.0,0.0,0.0,0.0,0.0,0.0,0.0,0.0,0.0,0.0,0.0,0.0,0.0,0.0,0.0,0.0,0.0,0.0,0.0,0.0,0.0,0.0,0.0,0.0,0.0,0.0
1776753559361759663,13,1776753559361759663,camera_init,body,1.663980359856324,-0.21960077323113328,0.001196971755289006,-9.826810939824856e-05,0.00015625568588694595,0.09730550066825139,0.9952545430528014,1.6416199057216782e-07,-5.148495294487469e-09,5.122167275445963e-09,-1.4380236026977453e-08,5.4778940032795036e-08,5.549987268637318e-08,-5.1484952944908314e-09,2.2648592791432183e-07,-1.5919263657795281e-09,-1.1348925775258925e-07,-1.4858609891144092e-08,6.21224803763996e-07,5.122167275450085e-09,-1.5919263657630581e-09,1.9554084423470733e-07,-3.642199254300059e-08,-5.477433068105859e-07,-3.868331605132877e-10,-1.438023602701001e-08,-1.1348925775296628e-07,-3.64219925429771e-08,1.2207727998901718e-06,1.593336318257345e-07,-3.4770641421318607e-07,5.4778940032793553e-08,-1.4858609891240072e-08,-5.477433068107499e-07,1.593336318258677e-07,3.828341208957164e-06,-2.302649908822728e-08,5.549987268637182e-08,6.212248037641747e-07,-3.8683316058948635e-10,-3.4770641421161e-07,-2.3026499087824145e-08,2.571691949018571e-06,0.0,0.0,0.0,0.0,0.0,0.0,0.0,0.0,0.0,0.0,0.0,0.0,0.0,0.0,0.0,0.0,0.0,0.0,0.0,0.0,0.0,0.0,0.0,0.0,0.0,0.0,0.0,0.0,0.0,0.0,0.0,0.0,0.0,0.0,0.0,0.0,0.0,0.0,0.0,0.0,0.0,0.0
1776753559461759567,14,1776753559461759567,camera_init,body,1.7878000640623002,-0.17203597367923903,0.001047219084883614,-1.9319685924747352e-05,0.00013671160262747011,0.10338970485866308,0.9946409150371441,1.6820039572831386e-07,-8.304356825566704e-09,5.6135856504014755e-09,-1.3953709634051089e-08,5.270692243328346e-08,6.11455942454573e-08,-8.304356825563404e-09,2.4103143926294964e-07,-2.58731324404234e-09,-1.190650951113686e-07,-1.513343314361223e-08,6.376452818403081e-07,5.6135856504036866e-09,-2.5873132440255102e-09,1.9826471415171544e-07,-4.245660697250097e-08,-5.374773566189325e-07,-2.953322239249067e-09,-1.3953709634080894e-08,-1.1906509511165976e-07,-4.24566069724916e-08,1.2055908282895473e-06,1.971912146825301e-07,-3.542490743976816e-07,5.2706922433285257e-08,-1.5133433143707017e-08,-5.374773566191486e-07,1.9719121468264724e-07,3.848414869874504e-06,-1.4437676015630639e-08,6.114559424548287e-08,6.376452818403296e-07,-2.9533222393145547e-09,-3.542490743964383e-07,-1.4437676015261637e-08,2.58766342990214e-06,0.0,0.0,0.0,0.0,0.0,0.0,0.0,0.0,0.0,0.0,0.0,0.0,0.0,0.0,0.0,0.0,0.0,0.0,0.0,0.0,0.0,0.0,0.0,0.0,0.0,0.0,0.0,0.0,0.0,0.0,0.0,0.0,0.0,0.0,0.0,0.0,0.0,0.0,0.0,0.0,0.0,0.0
1776753559561759472,15,1776753559561759472,camera_init,body,1.9105108633084231,-0.13151530514520812,0.0008749872848370425,8.83475342109783e-05,8.244003763294609e-05,0.10919490910207809,0.9940203505082488,1.7069121961334622e-07,-7.62239442663155e-09,6.230755236572002e-09,-1.5763344319846772e-08,4.899188904138983e-08,6.935296783649918e-08,-7.622394426626268e-09,2.563313589486405e-07,-2.700367275435056e-09,-1.2763480567699934e-07,-1.7155074113417527e-08,6.637166379664872e-07,6.2307552365711416e-09,-2.7003672754166242e-09,2.1894015288933345e-07,-5.8705880048311687e-08,-6.068906157779197e-07,-2.6539654009362682e-09,-1.576334431987851e-08,-1.2763480567728288e-07,-5.8705880048281405e-08,1.2589526078782273e-06,2.816951282352164e-07,-3.7526643044759653e-07,4.8991889041385805e-08,-1.7155074113513586e-08,-6.068906157778973e-07,2.816951282353282e-07,4.132734361102875e-06,-2.0433481101952396e-08,6.935296783651638e-08,6.637166379666541e-07,-2.6539654010080286e-09,-3.752664304465226e-07,-2.043348110156602e-08,2.6394024754745175e-06,0.0,0.0,0.0,0.0,0.0,0.0,0.0,0.0,0.0,0.0,0.0,0.0,0.0,0.0,0.0,0.0,0.0,0.0,0.0,0.0,0.0,0.0,0.0,0.0,0.0,0.0,0.0,0.0,0.0,0.0,0.0,0.0,0.0,0.0,0.0,0.0,0.0,0.0,0.0,0.0,0.0,0.0
1776753559661759615,16,1776753559661759615,camera_init,body,2.0320102362109576,-0.1065462870204539,0.000777564473140477,0.00019994072780934788,4.742065310670858e-05,0.11492695134019984,0.9933739243762307,1.762647389091934e-07,-6.87036519449641e-09,5.721778458028256e-09,-1.8142038456861947e-08,5.76494133773107e-08,7.858917399382644e-08,-6.870365194499727e-09,2.697756115894537e-07,-2.945686837574147e-09,-1.3347388779787836e-07,-2.2316688875890546e-08,6.825940628398362e-07,5.721778458031033e-09,-2.945686837557447e-09,2.158702792469662e-07,-6.371308965618236e-08,-5.695570076752307e-07,-2.4820668010616595e-09,-1.8142038456880873e-08,-1.334738877980917e-07,-6.371308965617371e-08,1.2516719092581658e-06,3.4271497584210054e-07,-3.842995450074874e-07,5.764941337732351e-08,-2.2316688875994864e-08,-5.695570076752895e-07,3.427149758421907e-07,4.174961756041643e-06,-3.5079885497029146e-08,7.858917399379767e-08,6.825940628398699e-07,-2.4820668011207384e-09,-3.842995450065983e-07,-3.507988549667832e-08,2.67411642902174e-06,0.0,0.0,0.0,0.0,0.0,0.0,0.0,0.0,0.0,0.0,0.0,0.0,0.0,0.0,0.0,0.0,0.0,0.0,0.0,0.0,0.0,0.0,0.0,0.0,0.0,0.0,0.0,0.0,0.0,0.0,0.0,0.0,0.0,0.0,0.0,0.0,0.0,0.0,0.0,0.0,0.0,0.0
1776753559761759520,17,1776753559761759520,camera_init,body,2.15299972764106,-0.09897151031079668,0.0009981901815374382,0.00028422269457315506,6.317461361168313e-05,0.12046099779154418,0.992718017987733,1.8139815028932606e-07,-8.202051967760146e-09,6.079200343258456e-09,-1.7118824457904456e-08,5.97324060988055e-08,8.33711016948386e-08,-8.202051967759345e-09,2.866716674463965e-07,-2.050031003465404e-09,-1.419493381098013e-07,-2.931786627340822e-08,7.035794512473794e-07,6.079200343259757e-09,-2.050031003454884e-09,2.262244861297999e-07,-4.9472703349179794e-08,-5.647024226068421e-07,-1.702557113577041e-09,-1.7118824457931984e-08,-1.4194933811001963e-07,-4.9472703349175625e-08,1.2475235937666655e-06,3.067616186912299e-07,-3.960498666318587e-07,5.973240609880879e-08,-2.931786627348006e-08,-5.64702422606956e-07,3.0676161869130257e-07,4.248297500097876e-06,-3.912683747772646e-08,8.33711016948517e-08,7.035794512474777e-07,-1.7025571136192387e-09,-3.960498666310996e-07,-3.912683747745965e-08,2.7061108323276587e-06,0.0,0.0,0.0,0.0,0.0,0.0,0.0,0.0,0.0,0.0,0.0,0.0,0.0,0.0,0.0,0.0,0.0,0.0,0.0,0.0,0.0,0.0,0.0,0.0,0.0,0.0,0.0,0.0,0.0,0.0,0.0,0.0,0.0,0.0,0.0,0.0,0.0,0.0,0.0,0.0,0.0,0.0
1776753559861759663,18,1776753559861759663,camera_init,body,2.2726975817093056,-0.112536650803148,0.001308179737406247,0.00035958872834584207,9.480623855681958e-05,0.1262121547047873,0.9920032024708879,1.9053744763672495e-07,-4.9127688147340966e-09,5.739118636149085e-09,-2.106652067650501e-08,6.276802475662277e-08,9.478605802839788e-08,-4.9127688147360835e-09,3.101449832230746e-07,-1.9096314525674865e-09,-1.52874099047714e-07,-3.180298655130729e-08,7.434573598690213e-07,5.739118636149186e-09,-1.9096314525560172e-09,2.294998283129557e-07,-5.2406572060623687e-08,-5.563262788896806e-07,-1.1232202978058793e-09,-2.1066520676528013e-08,-1.5287409904790608e-07,-5.240657206060674e-08,1.2736589799567611e-06,3.1319180792147074e-07,-4.1629464593138895e-07,6.276802475660911e-08,-3.1802986551375236e-08,-5.563262788895333e-07,3.131918079215352e-07,4.31366617869762e-06,-4.9337634839663374e-08,9.478605802842432e-08,7.434573598692228e-07,-1.1232202978477226e-09,-4.162946459306958e-07,-4.933763483941149e-08,2.795927778223943e-06,0.0,0.0,0.0,0.0,0.0,0.0,0.0,0.0,0.0,0.0,0.0,0.0,0.0,0.0,0.0,0.0,0.0,0.0,0.0,0.0,0.0,0.0,0.0,0.0,0.0,0.0,0.0,0.0,0.0,0.0,0.0,0.0,0.0,0.0,0.0,0.0,0.0,0.0,0.0,0.0,0.0,0.0
1776753559961759567,19,1776753559961759567,camera_init,body,2.3908918516779165,-0.143645820361587,0.0014191309024695696,0.00039533131535708925,0.00013454436070165418,0.13207048323939555,0.9912402398348642,1.9388435632160185e-07,-5.5384099651760135e-09,5.182460873451616e-09,-2.2845909972195332e-08,6.444491213199965e-08,9.267140369965607e-08,-5.538409965172982e-09,3.223454821297831e-07,-1.4780776736102903e-09,-1.591804684373303e-07,-3.815671543030593e-08,7.641175469397584e-07,5.182460873454076e-09,-1.478077673599879e-09,2.2576622888787975e-07,-5.864296501729633e-08,-5.284602771752173e-07,5.529649775836681e-10,-2.284590997221537e-08,-1.591804684375072e-07,-5.8642965017274254e-08,1.247223230839413e-06,3.4406615618599585e-07,-4.260646747451064e-07,6.444491213197117e-08,-3.815671543037531e-08,-5.284602771750357e-07,3.440661561860513e-07,4.3219970465208295e-06,-6.865453433287474e-08,9.267140369965442e-08,7.641175469398408e-07,5.529649775469959e-10,-4.2606467474450544e-07,-6.865453433262934e-08,2.8368252065272567e-06,0.0,0.0,0.0,0.0,0.0,0.0,0.0,0.0,0.0,0.0,0.0,0.0,0.0,0.0,0.0,0.0,0.0,0.0,0.0,0.0,0.0,0.0,0.0,0.0,0.0,0.0,0.0,0.0,0.0,0.0,0.0,0.0,0.0,0.0,0.0,0.0,0.0,0.0,0.0,0.0,0.0,0.0
1776753560061759472,20,1776753560061759472,camera_init,body,2.5082897592239215,-0.1953105229180042,0.001095695931933011,0.00045518439522422756,7.50319724208465e-05,0.138653672142884,0.9903408233424811,1.992855992823651e-07,-3.106473577661961e-09,6.683357210452034e-09,-2.6566167897792824e-08,6.328967703154364e-08,9.091965124019819e-08,-3.1064735776643775e-09,3.434171527715e-07,-3.0205177774144037e-09,-1.6495217348880043e-07,-3.7364007836575626e-08,7.902862411364837e-07,6.683357210457587e-09,-3.0205177774073002e-09,2.3398459841360623e-07,-5.4106085012786755e-08,-5.293445342667222e-07,-7.162627614854969e-10,-2.6566167897804868e-08,-1.649521734889241e-07,-5.41060850127883e-08,1.2829240500511759e-06,3.5318053641251656e-07,-4.3716539206203474e-07,6.328967703152818e-08,-3.73640078366278e-08,-5.293445342668342e-07,3.5318053641256934e-07,4.4272044310409255e-06,-7.327807070534201e-08,9.091965124020432e-08,7.902862411365056e-07,-7.162627615108132e-10,-4.371653920614758e-07,-7.32780707051112e-08,2.8629475869337486e-06,0.0,0.0,0.0,0.0,0.0,0.0,0.0,0.0,0.0,0.0,0.0,0.0,0.0,0.0,0.0,0.0,0.0,0.0,0.0,0.0,0.0,0.0,0.0,0.0,0.0,0.0,0.0,0.0,0.0,0.0,0.0,0.0,0.0,0.0,0.0,0.0,0.0,0.0,0.0,0.0,0.0,0.0
1776753560161759615,21,1776753560161759615,camera_init,body,2.625406747849629,-0.25770636659887,0.000774124084162489,0.0003655300782445159,6.074409436246454e-05,0.1456622160764227,0.9893343123058161,2.0408572951461962e-07,-1.4728319476421485e-10,4.8520805991650954e-09,-2.678543944320299e-08,6.871171038124412e-08,8.869480360907523e-08,-1.4728319476168285e-10,3.5876637641771585e-07,-7.965605631609454e-10,-1.7668822740495894e-07,-4.30508385530686e-08,8.094079758246635e-07,4.852080599165293e-09,-7.965605631540757e-10,2.3575469087836056e-07,-4.2096379344019355e-08,-5.015151926347979e-07,-5.659989875218245e-10,-2.678543944321633e-08,-1.766882274050841e-07,-4.2096379344015536e-08,1.2770085393448377e-06,3.3990828487742973e-07,-4.489698348998369e-07,6.871171038125312e-08,-4.3050838553125644e-08,-5.015151926348267e-07,3.399082848774782e-07,4.485466726435075e-06,-7.485270477499508e-08,8.869480360906923e-08,8.094079758247122e-07,-5.659989875474365e-10,-4.489698348993349e-07,-7.485270477478302e-08,2.87779981841217e-06,0.0,0.0,0.0,0.0,0.0,0.0,0.0,0.0,0.0,0.0,0.0,0.0,0.0,0.0,0.0,0.0,0.0,0.0,0.0,0.0,0.0,0.0,0.0,0.0,0.0,0.0,0.0,0.0,0.0,0.0,0.0,0.0,0.0,0.0,0.0,0.0,0.0,0.0,0.0,0.0,0.0,0.0
1776753560261759520,22,1776753560261759520,camera_init,body,2.740605154126342,-0.3247499612781766,0.0005635520625607118,0.0002817796949347509,4.983254716208434e-05,0.15321596291569545,0.9881926870933295,2.111048735967133e-07,1.561163197002671e-09,6.302819663719849e-09,-3.16265745317277e-08,6.237471071114777e-08,8.733160730906567e-08,1.5611631970001685e-09,3.788033007725688e-07,-2.9433760539368497e-09,-1.831645054007497e-07,-4.275208742160211e-08,8.313971409861282e-07,6.302819663719417e-09,-2.9433760539251335e-09,2.4204723138346567e-07,-4.842829007847848e-08,-5.143517619101702e-07,-1.2541262379068876e-09,-3.162657453173953e-08,-1.8316450540087305e-07,-4.842829007846282e-08,1.2968962658572068e-06,3.4998504660330075e-07,-4.633387022311275e-07,6.23747107111339e-08,-4.275208742165915e-08,-5.143517619099813e-07,3.499850466033483e-07,4.52213176376586e-06,-7.996071621758877e-08,8.733160730903554e-08,8.313971409859778e-07,-1.2541262379413597e-09,-4.633387022306591e-07,-7.996071621737916e-08,2.8976297005198544e-06,0.0,0.0,0.0,0.0,0.0,0.0,0.0,0.0,0.0,0.0,0.0,0.0,0.0,0.0,0.0,0.0,0.0,0.0,0.0,0.0,0.0,0.0,0.0,0.0,0.0,0.0,0.0,0.0,0.0,0.0,0.0,0.0,0.0,0.0,0.0,0.0,0.0,0.0,0.0,0.0,0.0,0.0
1776753560361759663,23,1776753560361759663,camera_init,body,2.855890417768105,-0.3887468092409528,0.00019194265418239154,0.0002080807534113282,-4.48725362905631e-06,0.1607191111670932,0.9870001641276064,2.2221630726550093e-07,8.930662476749254e-09,8.363713376009952e-09,-3.7365413479441645e-08,5.834757631752347e-08,8.049693940555202e-08,8.930662476749009e-09,3.97515089732548e-07,-4.059036231321459e-09,-1.894616824331561e-07,-4.039050084264229e-08,8.592478842526816e-07,8.363713376012886e-09,-4.059036231318243e-09,2.577795558215482e-07,-3.315493920999237e-08,-5.219131341808937e-07,-2.36843760912586e-09,-3.736541347945223e-08,-1.8946168243330517e-07,-3.315493921000771e-08,1.329299055140235e-06,3.298426749015576e-07,-4.77628132130136e-07,5.834757631753702e-08,-4.039050084269857e-08,-5.219131341811706e-07,3.298426749016016e-07,4.681442381386787e-06,-8.798037272926007e-08,8.049693940555135e-08,8.592478842528143e-07,-2.3684376091418494e-09,-4.776281321296943e-07,-8.79803727290612e-08,2.946787093716588e-06,0.0,0.0,0.0,0.0,0.0,0.0,0.0,0.0,0.0,0.0,0.0,0.0,0.0,0.0,0.0,0.0,0.0,0.0,0.0,0.0,0.0,0.0,0.0,0.0,0.0,0.0,0.0,0.0,0.0,0.0,0.0,0.0,0.0,0.0,0.0,0.0,0.0,0.0,0.0,0.0,0.0,0.0
1776753560461759567,24,1776753560461759567,camera_init,body,2.9726770167609575,-0.44531360717771723,6.623082324623822e-05,0.00013274575007009003,8.296248396213637e-06,0.16860008374567798,0.9856845307047736,2.2627505526290939e-07,9.972299156777016e-09,8.744724158118575e-09,-3.714666899706045e-08,5.5939118178046736e-08,8.456758254954649e-08,9.972299156782486e-09,4.191451434667684e-07,-3.0156564833901132e-09,-2.0257011277128023e-07,-4.243694528364294e-08,8.902050000569542e-07,8.744724158119705e-09,-3.015656483386468e-09,2.629553209239897e-07,3.05274610960779e-09,-5.033649005270766e-07,-4.437064315033331e-09,-3.7146668997077126e-08,-2.0257011277137827e-07,3.05274610961358e-09,1.3348523666026253e-06,2.673086754335809e-07,-4.999605434133643e-07,5.593911817803022e-08,-4.2436945283693076e-08,-5.033649005270483e-07,2.6730867543362294e-07,4.811690803761996e-06,-8.492520014106937e-08,8.45675825495483e-08,8.902050000568629e-07,-4.4370643150446014e-09,-4.999605434129576e-07,-8.49252001408899e-08,3.008815984986518e-06,0.0,0.0,0.0,0.0,0.0,0.0,0.0,0.0,0.0,0.0,0.0,0.0,0.0,0.0,0.0,0.0,0.0,0.0,0.0,0.0,0.0,0.0,0.0,0.0,0.0,0.0,0.0,0.0,0.0,0.0,0.0,0.0,0.0,0.0,0.0,0.0,0.0,0.0,0.0,0.0,0.0,0.0
1776753560561759472,25,1776753560561759472,camera_init,body,3.089585255009751,-0.49019310974932656,0.0004616375758850698,4.442904399956808e-05,0.00011564743353798782,0.17638108012598,0.984321948970623,2.340542815532765e-07,1.1048512244614921e-08,8.92554854022876e-09,-3.936548143417758e-08,5.678200946343268e-08,6.826582865654593e-08,1.1048512244614035e-08,4.401165746131854e-07,-2.8222435649826896e-09,-2.126532301281824e-07,-4.5539433455273834e-08,9.097510333762703e-07,8.925548540233603e-09,-2.8222435649799533e-09,2.5926951125671477e-07,-1.7581451729692115e-09,-4.887795621929542e-07,-4.4783454320037425e-09,-3.9365481434188116e-08,-2.1265323012828426e-07,-1.7581451729785074e-09,1.3155694268545953e-06,2.5989765784400874e-07,-5.097176738299032e-07,5.678200946345523e-08,-4.55394334553282e-08,-4.887795621932785e-07,2.598976578440483e-07,4.817920574970059e-06,-9.653532222216181e-08,6.826582865654114e-08,9.097510333762786e-07,-4.478345432014407e-09,-5.097176738295358e-07,-9.653532222198403e-08,3.0193430570136735e-06,0.0,0.0,0.0,0.0,0.0,0.0,0.0,0.0,0.0,0.0,0.0,0.0,0.0,0.0,0.0,0.0,0.0,0.0,0.0,0.0,0.0,0.0,0.0,0.0,0.0,0.0,0.0,0.0,0.0,0.0,0.0,0.0,0.0,0.0,0.0,0.0,0.0,0.0,0.0,0.0,0.0,0.0
1776753560661759615,26,1776753560661759615,camera_init,body,3.207758777109382,-0.5136894538847706,0.0006847011911108771,-7.37093133050346e-05,0.0001314018126518314,0.18396229322455515,0.9829332896855539,2.481795850946199e-07,2.0642490489488205e-08,8.088427268241176e-09,-5.050875296057572e-08,5.26107003691217e-08,7.778168996758058e-08,2.064249048948594e-08,4.644607628517426e-07,-1.4864931552955965e-09,-2.1279879854953569e-07,-5.356813773551824e-08,9.395726646378348e-07,8.08842726824473e-09,-1.486493155294523e-09,2.7289323060177516e-07,8.213565541405084e-09,-5.181219729474681e-07,5.380487201104591e-09,-5.0508752960579586e-08,-2.1279879854961065e-07,8.213565541395111e-09,1.323714367644627e-06,2.1618451133952233e-07,-4.987581458949727e-07,5.261070036912562e-08,-5.3568137735568905e-08,-5.181219729477891e-07,2.1618451133955775e-07,5.261346897587617e-06,-1.2507084797936347e-07,7.778168996756145e-08,9.39572664637629e-07,5.3804872010941745e-09,-4.987581458946254e-07,-1.2507084797919073e-07,3.058792918730284e-06,0.0,0.0,0.0,0.0,0.0,0.0,0.0,0.0,0.0,0.0,0.0,0.0,0.0,0.0,0.0,0.0,0.0,0.0,0.0,0.0,0.0,0.0,0.0,0.0,0.0,0.0,0.0,0.0,0.0,0.0,0.0,0.0,0.0,0.0,0.0,0.0,0.0,0.0,0.0,0.0,0.0,0.0
1776753560761759520,27,1776753560761759520,camera_init,body,3.3285868455003804,-0.5203042286808776,0.0009572302203264677,-0.00010612416871943645,0.00020897867392347588,0.19168940131115692,0.981455612083677,2.613731531608262e-07,2.51347170496847e-08,7.671978943134722e-09,-5.2912669326401826e-08,5.8435569419399794e-08,6.557601144563197e-08,2.5134717049679385e-08,4.906230109495488e-07,-1.7533303801273827e-09,-2.3021845881947385e-07,-5.614640025319001e-08,9.769420733002016e-07,7.671978943135152e-09,-1.7533303801274948e-09,3.1618256352585584e-07,3.698115937627114e-08,-6.239838853266002e-07,-3.109090428870419e-10,-5.2912669326403943e-08,-2.3021845881960324e-07,3.69811593762676e-08,1.397334597276598e-06,1.8874852096292304e-07,-5.219877991925098e-07,5.843556941940202e-08,-5.61464002532556e-08,-6.239838853267224e-07,1.887485209629602e-07,5.543264395539055e-06,-1.275443634797651e-07,6.557601144561873e-08,9.769420733003244e-07,-3.1090904288606085e-10,-5.219877991921681e-07,-1.2754436347959258e-07,3.1301356656375083e-06,0.0,0.0,0.0,0.0,0.0,0.0,0.0,0.0,0.0,0.0,0.0,0.0,0.0,0.0,0.0,0.0,0.0,0.0,0.0,0.0,0.0,0.0,0.0,0.0,0.0,0.0,0.0,0.0,0.0,0.0,0.0,0.0,0.0,0.0,0.0,0.0,0.0,0.0,0.0,0.0,0.0,0.0
1776753560861759663,28,1776753560861759663,camera_init,body,3.4512472515553747,-0.5127645116119729,0.0013598984931438923,-0.00019204502400961516,0.00029345648322981986,0.19909954010060674,0.9799792090313586,2.7969429042892254e-07,2.7081940263334293e-08,9.684888011490663e-09,-5.974866818011211e-08,6.270701456673246e-08,7.136875168112581e-08,2.7081940263329816e-08,5.287045179769829e-07,-1.659377806114957e-09,-2.449467503338822e-07,-5.8637734586948344e-08,1.0187042851338317e-06,9.684888011493844e-09,-1.659377806120494e-09,3.4745875108653165e-07,9.316284702520562e-08,-6.437084937316398e-07,7.438404872910721e-10,-5.974866818011772e-08,-2.449467503340057e-07,9.316284702519399e-08,1.4819453919650172e-06,1.288096000967116e-07,-5.426605138970593e-07,6.270701456674094e-08,-5.863773458700441e-08,-6.437084937317838e-07,1.2880960009675025e-07,6.169482704751838e-06,-1.4042099648029304e-07,7.136875168111373e-08,1.0187042851338476e-06,7.438404873072695e-10,-5.426605138967299e-07,-1.4042099648012395e-07,3.2030297151597313e-06,0.0,0.0,0.0,0.0,0.0,0.0,0.0,0.0,0.0,0.0,0.0,0.0,0.0,0.0,0.0,0.0,0.0,0.0,0.0,0.0,0.0,0.0,0.0,0.0,0.0,0.0,0.0,0.0,0.0,0.0,0.0,0.0,0.0,0.0,0.0,0.0,0.0,0.0,0.0,0.0,0.0,0.0
1776753560961759567,29,1776753560961759567,camera_init,body,3.574911652605411,-0.4965648863878944,0.0017560667724283473,-0.00024621927524753174,0.00031625554131345526,0.20622060510927887,0.9785054426965977,2.9352615636971997e-07,3.573896226526029e-08,8.758419206467382e-09,-6.035866530630953e-08,8.810162427601618e-08,8.917360567058394e-08,3.5738962265257216e-08,5.697065196514796e-07,4.837500032325179e-09,-2.681730627349138e-07,-8.087806445152916e-08,1.0616981223581638e-06,8.75841920646645e-09,4.8375000323172925e-09,4.0157003191642265e-07,1.675662347979488e-07,-7.192227567077201e-07,-1.1146351488339064e-09,-6.035866530631683e-08,-2.681730627350076e-07,1.6756623479794777e-07,1.5586526625244451e-06,3.2042516049396985e-08,-5.66782078330758e-07,8.810162427602847e-08,-8.087806445156638e-08,-7.192227567076887e-07,3.204251604943547e-08,7.004381198855022e-06,-1.7787173247216684e-07,8.917360567058316e-08,1.061698122358104e-06,-1.1146351488087328e-09,-5.667820783304425e-07,-1.7787173247200276e-07,3.2684347447007425e-06,0.0,0.0,0.0,0.0,0.0,0.0,0.0,0.0,0.0,0.0,0.0,0.0,0.0,0.0,0.0,0.0,0.0,0.0,0.0,0.0,0.0,0.0,0.0,0.0,0.0,0.0,0.0,0.0,0.0,0.0,0.0,0.0,0.0,0.0,0.0,0.0,0.0,0.0,0.0,0.0,0.0,0.0
1776753561061759472,30,1776753561061759472,camera_init,body,3.697399817580044,-0.46491314788527494,0.001628369037717087,-0.00016714195915159906,0.0002939116947387245,0.2126374434642228,0.9771311085604034,3.061659249591837e-07,3.734228416786204e-08,1.1067884803921764e-08,-6.170236569753415e-08,1.0072344766058731e-07,7.211260787496577e-08,3.7342284167861326e-08,5.969159313675475e-07,5.641626346726179e-09,-2.787042005970183e-07,-9.388457893640136e-08,1.0897717005565864e-06,1.1067884803922742e-08,5.641626346715882e-09,4.592908919063033e-07,2.3468279923515588e-07,-8.493764865374186e-07,-1.908042443732698e-09,-6.170236569753945e-08,-2.7870420059711065e-07,2.3468279923515365e-07,1.6769752755612355e-06,-1.2163074281539886e-07,-5.786441562045625e-07,1.0072344766057334e-07,-9.38845789364579e-08,-8.493764865375526e-07,-1.216307428153619e-07,8.188420495024737e-06,-2.2312765798195387e-07,7.211260787495716e-08,1.0897717005566027e-06,-1.908042443700242e-09,-5.786441562042579e-07,-2.2312765798179796e-07,3.2787107401931125e-06,0.0,0.0,0.0,0.0,0.0,0.0,0.0,0.0,0.0,0.0,0.0,0.0,0.0,0.0,0.0,0.0,0.0,0.0,0.0,0.0,0.0,0.0,0.0,0.0,0.0,0.0,0.0,0.0,0.0,0.0,0.0,0.0,0.0,0.0,0.0,0.0,0.0,0.0,0.0,0.0,0.0,0.0
1776753561161759615,31,1776753561161759615,camera_init,body,3.8196456945992976,-0.42790890035958834,0.0018412323452586536,-0.00014084158042142184,0.00035900998159164784,0.21895171677721584,0.9757356183904502,3.4381151801767467e-07,4.6101859605511696e-08,1.6639452492842388e-08,-7.816331935551956e-08,7.963981420880395e-08,9.847713752811783e-08,4.6101859605509215e-08,6.747572506039587e-07,1.6290876626343028e-09,-3.0708048726425685e-07,-9.120374224236058e-08,1.172349711456814e-06,1.6639452492839946e-08,1.6290876626260252e-09,5.401954587747537e-07,3.3339495444929075e-07,-9.35061079384536e-07,1.3441001544234614e-09,-7.816331935553141e-08,-3.070804872643569e-07,3.333949544492658e-07,1.865148129058024e-06,-2.3445853704588262e-07,-6.242622949724265e-07,7.963981420881104e-08,-9.120374224242405e-08,-9.350610793843485e-07,-2.3445853704584294e-07,8.688309607708515e-06,-2.175577890274107e-07,9.847713752810212e-08,1.1723497114568237e-06,1.3441001544498295e-09,-6.242622949721054e-07,-2.1755778902725829e-07,3.4324495864569184e-06,0.0,0.0,0.0,0.0,0.0,0.0,0.0,0.0,0.0,0.0,0.0,0.0,0.0,0.0,0.0,0.0,0.0,0.0,0.0,0.0,0.0,0.0,0.0,0.0,0.0,0.0,0.0,0.0,0.0,0.0,0.0,0.0,0.0,0.0,0.0,0.0,0.0,0.0,0.0,0.0,0.0,0.0
1776753561261759520,32,1776753561261759520,camera_init,body,3.941765033825501,-0.3883679017744217,0.0017365829413681232,-9.111289614790751e-05,0.0003346166635853936,0.22519711734574924,0.974313162217003,3.681125375271357e-07,4.9555144942391747e-08,1.7158239909257477e-08,-8.273517685357674e-08,8.213998347387153e-08,8.347616248553245e-08,4.955514494239182e-08,7.271358432981868e-07,5.916150424145852e-09,-3.250824455731362e-07,-9.629015613970486e-08,1.22904575906182e-06,1.715823990925547e-08,5.916150424130105e-09,6.091410611542129e-07,4.2271951112337764e-07,-9.692056755898317e-07,2.256581218252434e-09,-8.273517685358595e-08,-3.2508244557323243e-07,4.227195111233579e-07,2.0698200770281473e-06,-3.057480330006338e-07,-6.44035566809484e-07,8.213998347387058e-08,-9.629015613975086e-08,-9.692056755898089e-07,-3.0574803300058864e-07,9.547321368961113e-06,-2.2340871638440323e-07,8.347616248552188e-08,1.2290457590617302e-06,2.256581218308462e-09,-6.440355668091542e-07,-2.234087163842392e-07,3.54347976618067e-06,0.0,0.0,0.0,0.0,0.0,0.0,0.0,0.0,0.0,0.0,0.0,0.0,0.0,0.0,0.0,0.0,0.0,0.0,0.0,0.0,0.0,0.0,0.0,0.0,0.0,0.0,0.0,0.0,0.0,0.0,0.0,0.0,0.0,0.0,0.0,0.0,0.0,0.0,0.0,0.0,0.0,0.0
1776753561361759663,33,1776753561361759663,camera_init,body,4.062709828003654,-0.349180810445693,0.0016753728436026839,-6.186284173261378e-05,0.00031618850548989936,0.23077666324647214,0.9730066946833634,4.0069564917172664e-07,5.843729803719732e-08,2.4326953100069417e-08,-8.551908351710652e-08,7.398421146771418e-08,8.372902873731934e-08,5.8437298037194796e-08,7.968451260823063e-07,7.692505567635605e-09,-3.536581061077358e-07,-1.036453469883865e-07,1.305381573110828e-06,2.432695310006647e-08,7.692505567608958e-09,7.186219286587012e-07,5.815361767560854e-07,-1.1874645979180104e-06,-2.6140915923332853e-09,-8.55190835171089e-08,-3.5365810610786156e-07,5.815361767560517e-07,2.38988845392024e-06,-5.994863841679512e-07,-6.851504196772857e-07,7.39842114677054e-08,-1.0364534698844262e-07,-1.1874645979179917e-06,-5.994863841678986e-07,1.138791987359323e-05,-2.3039434786663793e-07,8.37290287373192e-08,1.3053815731108315e-06,-2.614091592259074e-09,-6.851504196769375e-07,-2.3039434786647922e-07,3.6744086085940892e-06,0.0,0.0,0.0,0.0,0.0,0.0,0.0,0.0,0.0,0.0,0.0,0.0,0.0,0.0,0.0,0.0,0.0,0.0,0.0,0.0,0.0,0.0,0.0,0.0,0.0,0.0,0.0,0.0,0.0,0.0,0.0,0.0,0.0,0.0,0.0,0.0,0.0,0.0,0.0,0.0,0.0,0.0
1776753561461759567,34,1776753561461759567,camera_init,body,4.182339055086009,-0.3172314853557579,0.0016969756999331092,-4.1246198686988856e-05,0.0002983618652052214,0.23641474773588328,0.971652188970894,4.4214291387275955e-07,6.974373418972911e-08,2.9654918663434023e-08,-9.529715698415272e-08,8.122970171784435e-08,6.980571138860248e-08,6.974373418973184e-08,8.641394273374976e-07,1.0477607048266217e-08,-3.7691834276978935e-07,-9.996694318387051e-08,1.381681871252887e-06,2.9654918663433848e-08,1.0477607048237522e-08,8.418678586494748e-07,7.048426427741482e-07,-1.2831880437796625e-06,-1.1049979404126185e-09,-9.529715698416644e-08,-3.769183427699075e-07,7.048426427741535e-07,2.6810933950072878e-06,-6.480944515490539e-07,-7.135063888503271e-07,8.122970171784191e-08,-9.996694318395379e-08,-1.283188043779668e-06,-6.480944515489831e-07,1.4020230266757311e-05,-2.4857179663772646e-07,6.980571138859976e-08,1.3816818712528654e-06,-1.1049979403277762e-09,-7.135063888499677e-07,-2.4857179663751174e-07,3.8146135821997365e-06,0.0,0.0,0.0,0.0,0.0,0.0,0.0,0.0,0.0,0.0,0.0,0.0,0.0,0.0,0.0,0.0,0.0,0.0,0.0,0.0,0.0,0.0,0.0,0.0,0.0,0.0,0.0,0.0,0.0,0.0,0.0,0.0,0.0,0.0,0.0,0.0,0.0,0.0,0.0,0.0,0.0,0.0
1776753561561759472,35,1776753561561759472,camera_init,body,4.30317945268861,-0.28539749356607536,0.0017174034234078506,-2.805087070576021e-08,0.0003760516422577182,0.24272547944852693,0.9700949439161343,4.841885393658932e-07,7.246258496965178e-08,3.061591689194331e-08,-1.0325154460856423e-07,8.045153386333204e-08,4.2948103380472785e-08,7.246258496964619e-08,9.426930051526449e-07,2.2006685023693413e-08,-3.946775508774354e-07,-9.153176294211347e-08,1.464103174874033e-06,3.0615916891937136e-08,2.200668502365517e-08,9.64139920905733e-07,8.667908180327868e-07,-1.22997015247581e-06,8.524082994195322e-09,-1.0325154460856127e-07,-3.9467755087756075e-07,8.667908180327724e-07,3.0574250842155496e-06,-4.5277728318402013e-07,-7.287719229500202e-07,8.045153386332982e-08,-9.15317629422329e-08,-1.2299701524757564e-06,-4.5277728318390885e-07,1.852289270978063e-05,-2.411592457995542e-07,4.294810338045313e-08,1.464103174874015e-06,8.524082994286117e-09,-7.287719229496332e-07,-2.4115924579923005e-07,3.954991991963177e-06,0.0,0.0,0.0,0.0,0.0,0.0,0.0,0.0,0.0,0.0,0.0,0.0,0.0,0.0,0.0,0.0,0.0,0.0,0.0,0.0,0.0,0.0,0.0,0.0,0.0,0.0,0.0,0.0,0.0,0.0,0.0,0.0,0.0,0.0,0.0,0.0,0.0,0.0,0.0,0.0,0.0,0.0
1776753561661759615,36,1776753561661759615,camera_init,body,4.425038801877713,-0.25090625024577956,0.001256763192621415,5.669920148844126e-05,0.00028567591655318555,0.24908781155636275,0.9684808605793591,5.407339633303846e-07,8.675059819162985e-08,3.461747182340309e-08,-1.1242724440070203e-07,4.527599904453941e-08,6.7524683076544335e-09,8.675059819162255e-08,1.0163419844509016e-06,3.390861369774256e-08,-4.041190043681025e-07,-4.540346996426528e-09,1.5531012608375698e-06,3.461747182340165e-08,3.3908613697692266e-08,1.1578747858928353e-06,1.1482740013999784e-06,-5.64479052651e-07,7.297880801330122e-09,-1.1242724440069864e-07,-4.0411900436827127e-07,1.1482740013999549e-06,3.622712587425492e-06,7.867467512256989e-07,-7.461200593957437e-07,4.527599904453952e-08,-4.5403469966869905e-09,-5.644790526509352e-07,7.867467512259286e-07,2.994801866704648e-05,-1.4398493663547202e-07,6.752468307652435e-09,1.5531012608374972e-06,7.2978808014640024e-09,-7.46120059395288e-07,-1.4398493663480821e-07,4.1481178536298355e-06,0.0,0.0,0.0,0.0,0.0,0.0,0.0,0.0,0.0,0.0,0.0,0.0,0.0,0.0,0.0,0.0,0.0,0.0,0.0,0.0,0.0,0.0,0.0,0.0,0.0,0.0,0.0,0.0,0.0,0.0,0.0,0.0,0.0,0.0,0.0,0.0,0.0,0.0,0.0,0.0,0.0,0.0
1776753561761759520,37,1776753561761759520,camera_init,body,4.546021748245134,-0.22907586782116895,0.0011857562170104817,8.731506458866548e-05,0.0003095143623746666,0.2561689727149867,0.9666319640872059,5.829066590457488e-07,8.229133423922516e-08,3.6159209586161686e-08,-1.1899631249541132e-07,1.0530473660093112e-07,-6.470633498068267e-08,8.229133423921882e-08,1.0767486995834921e-06,3.554612756428396e-08,-4.298928529887255e-07,-1.8590939347686618e-08,1.5868250058563475e-06,3.6159209586164114e-08,3.5546127564226934e-08,1.163993538127172e-06,1.3300342952241878e-06,-6.115914669852601e-07,3.090969893835744e-10,-1.1899631249540613e-07,-4.298928529889386e-07,1.3300342952241702e-06,4.2082471130171955e-06,2.5203065296797784e-06,-7.443125907539345e-07,1.0530473660095134e-07,-1.8590939348052642e-08,-6.115914669852004e-07,2.5203065296801125e-06,4.552666013838458e-05,-3.197905956194204e-08,-6.470633498070497e-08,1.5868250058565076e-06,3.090969895017818e-10,-7.443125907534374e-07,-3.197905956097777e-08,4.230397062309802e-06,0.0,0.0,0.0,0.0,0.0,0.0,0.0,0.0,0.0,0.0,0.0,0.0,0.0,0.0,0.0,0.0,0.0,0.0,0.0,0.0,0.0,0.0,0.0,0.0,0.0,0.0,0.0,0.0,0.0,0.0,0.0,0.0,0.0,0.0,0.0,0.0,0.0,0.0,0.0,0.0,0.0,0.0
1776753561861759663,38,1776753561861759663,camera_init,body,4.66552701776505,-0.21818076195798775,0.0010984003580013617,4.6945964146776494e-05,0.0002926080822678882,0.26208777911177794,0.9650439928919533,6.541511373820124e-07,1.018530982673235e-07,5.869532461960917e-08,-1.1655431062757914e-07,1.0336983403763588e-07,-1.3167476084236367e-07,1.0185309826731967e-07,1.1644819706474178e-06,4.7774340899659816e-08,-4.396979568726958e-07,3.5076561424121506e-08,1.6820935609956539e-06,5.869532461961899e-08,4.777434089959936e-08,1.3808268934612929e-06,1.6457917272187693e-06,-5.848428389828682e-07,3.93151649487304e-09,-1.1655431062755097e-07,-4.3969795687290027e-07,1.6457917272187074e-06,5.007528325346336e-06,3.902691579778797e-06,-7.461069235789646e-07,1.0336983403767972e-07,3.5076561423695395e-08,-5.84842838982742e-07,3.9026915797792135e-06,6.091998834874541e-05,1.5945036249454554e-07,-1.3167476084238022e-07,1.682093560995613e-06,3.9315164950386615e-09,-7.461069235784033e-07,1.5945036249569226e-07,4.465425960082353e-06,0.0,0.0,0.0,0.0,0.0,0.0,0.0,0.0,0.0,0.0,0.0,0.0,0.0,0.0,0.0,0.0,0.0,0.0,0.0,0.0,0.0,0.0,0.0,0.0,0.0,0.0,0.0,0.0,0.0,0.0,0.0,0.0,0.0,0.0,0.0,0.0,0.0,0.0,0.0,0.0,0.0,0.0
1776753561961759567,39,1776753561961759567,camera_init,body,4.787457067818935,-0.18995982014485313,0.0008463218495920915,6.075072594368753e-05,0.00028265848329689884,0.26897919602183085,0.9631459435210128,6.987209711746401e-07,1.0891624451791145e-07,6.390310755009782e-08,-1.1559183133543597e-07,4.0277245524099094e-08,-2.407287345383121e-07,1.0891624451789375e-07,1.211240601505691e-06,7.548207944682394e-08,-3.9670051114628704e-07,3.2519592141413696e-07,1.7362312335484006e-06,6.390310755011408e-08,7.548207944674803e-08,1.381837236595088e-06,2.049929315706423e-06,5.436439322399894e-07,2.155351731506493e-08,-1.1559183133539113e-07,-3.9670051114649054e-07,2.0499293157063583e-06,6.082473824597285e-06,4.907567509438403e-06,-6.994728705297778e-07,4.0277245524168445e-08,3.251959214137201e-07,5.436439322401303e-07,4.90756750943885e-06,6.637049028726522e-05,4.465303519058545e-07,-2.4072873453832673e-07,1.736231233548357e-06,2.155351731528848e-08,-6.994728705291403e-07,4.465303519070116e-07,4.7096144950658055e-06,0.0,0.0,0.0,0.0,0.0,0.0,0.0,0.0,0.0,0.0,0.0,0.0,0.0,0.0,0.0,0.0,0.0,0.0,0.0,0.0,0.0,0.0,0.0,0.0,0.0,0.0,0.0,0.0,0.0,0.0,0.0,0.0,0.0,0.0,0.0,0.0,0.0,0.0,0.0,0.0,0.0,0.0
1776753562061759472,40,1776753562061759472,camera_init,body,4.907696229423978,-0.19904454171789762,0.0011778205431505775,0.00010392936326741584,0.0004312280061530597,0.27610453444331184,0.9611275093872486,7.223333939661658e-07,1.0819757469405184e-07,7.135484912644587e-08,-9.729748236786146e-08,7.600528446572857e-08,-3.49115641777994e-07,1.0819757469405904e-07,1.2956277621724318e-06,7.900766184583972e-08,-4.111267062132926e-07,1.6622948607067044e-07,1.8176425183860124e-06,7.135484912646862e-08,7.900766184575451e-08,1.5115234664494603e-06,2.5066040796927653e-06,1.7423319371390688e-07,1.1568788549230246e-08,-9.729748236781615e-08,-4.111267062135575e-07,2.506604079692777e-06,7.654089582774265e-06,6.884465110438369e-06,-6.891290742818488e-07,7.600528446584652e-08,1.6622948607016394e-07,1.7423319371399275e-07,6.884465110438901e-06,8.839133492436363e-05,3.894457649136191e-07,-3.4911564177797685e-07,1.8176425183860065e-06,1.156878854946641e-08,-6.891290742811026e-07,3.894457649150297e-07,4.964285415867789e-06,0.0,0.0,0.0,0.0,0.0,0.0,0.0,0.0,0.0,0.0,0.0,0.0,0.0,0.0,0.0,0.0,0.0,0.0,0.0,0.0,0.0,0.0,0.0,0.0,0.0,0.0,0.0,0.0,0.0,0.0,0.0,0.0,0.0,0.0,0.0,0.0,0.0,0.0,0.0,0.0,0.0,0.0
1776753562161759615,41,1776753562161759615,camera_init,body,5.026906622002257,-0.20617496173758076,0.0011347013824442266,0.00010358147439132627,0.0004000320188595909,0.2824411391674711,0.9592845418076124,8.078722529875177e-07,1.3666031752899078e-07,7.10807022694646e-08,-1.461985303251916e-07,1.1993807105462488e-07,-3.963018412382631e-07,1.3666031752898607e-07,1.3829179689610596e-06,7.610744346898927e-08,-4.5562437123537905e-07,2.8104408577768263e-07,1.8910619232633635e-06,7.108070226947886e-08,7.610744346890918e-08,1.506022508239598e-06,2.5855734883529385e-06,2.587259559547106e-07,1.327338237697945e-08,-1.4619853032513988e-07,-4.556243712356484e-07,2.5855734883529216e-06,7.985797238899248e-06,7.211974150455996e-06,-6.780142197958397e-07,1.199380710547277e-07,2.8104408577721216e-07,2.587259559549265e-07,7.211974150456506e-06,9.227844382019961e-05,5.777354728226521e-07,-3.963018412382617e-07,1.8910619232634095e-06,1.3273382377200777e-08,-6.780142197951281e-07,5.77735472823995e-07,5.22566445118751e-06,0.0,0.0,0.0,0.0,0.0,0.0,0.0,0.0,0.0,0.0,0.0,0.0,0.0,0.0,0.0,0.0,0.0,0.0,0.0,0.0,0.0,0.0,0.0,0.0,0.0,0.0,0.0,0.0,0.0,0.0,0.0,0.0,0.0,0.0,0.0,0.0,0.0,0.0,0.0,0.0,0.0,0.0
1776753562261759520,42,1776753562261759520,camera_init,body,5.148418217748673,-0.17766793248835325,0.0007483099317505886,2.0262497169516717e-05,0.0002273478102203814,0.288693560849013,0.9574215246309842,8.367018259563359e-07,1.3198054737904382e-07,7.964111016227224e-08,-1.234637802971385e-07,1.3686400235477677e-08,-5.329418164014228e-07,1.3198054737903805e-07,1.4398354725727748e-06,8.937694539023555e-08,-4.359206783054369e-07,1.7389807746269365e-07,1.956143149647552e-06,7.96411101622997e-08,8.937694539014539e-08,1.5716798237178908e-06,2.865388047122832e-06,7.024266231147807e-07,1.5428450018088887e-08,-1.234637802970611e-07,-4.359206783056984e-07,2.8653880471227847e-06,8.704000280394885e-06,6.917240444722777e-06,-6.786616637497317e-07,1.3686400235599544e-08,1.7389807746224843e-07,7.024266231149372e-07,6.9172404447232545e-06,0.00010063344414128063,3.699821731868664e-07,-5.329418164014538e-07,1.956143149647634e-06,1.542845001831709e-08,-6.786616637490137e-07,3.6998217318815225e-07,5.500103686441617e-06,0.0,0.0,0.0,0.0,0.0,0.0,0.0,0.0,0.0,0.0,0.0,0.0,0.0,0.0,0.0,0.0,0.0,0.0,0.0,0.0,0.0,0.0,0.0,0.0,0.0,0.0,0.0,0.0,0.0,0.0,0.0,0.0,0.0,0.0,0.0,0.0,0.0,0.0,0.0,0.0,0.0,0.0
1776753562361759663,43,1776753562361759663,camera_init,body,5.267112827440202,-0.16271260448526736,0.0005845903889380952,1.1501923350007817e-05,0.00017979497139136583,0.2950557748467881,0.9554800140615347,8.517768038449042e-07,1.5837571511352855e-07,9.3297955616708e-08,-1.0874648140322258e-07,1.0800764119112858e-07,-6.338217129309703e-07,1.5837571511352572e-07,1.55196328626501e-06,1.0410787527082558e-07,-4.576663947873321e-07,7.701409662997621e-08,2.0622097625757397e-06,9.329795561673728e-08,1.0410787527073861e-07,1.6525388986453367e-06,3.1120211776756643e-06,-5.717555588188107e-07,6.587418977409872e-09,-1.0874648140312528e-07,-4.576663947875899e-07,3.1120211776755364e-06,1.018644218542863e-05,9.14606708049363e-06,-7.060805304923815e-07,1.0800764119130275e-07,7.701409662936984e-08,-5.71755558818609e-07,9.146067080494224e-06,0.00013142334844900102,1.4453840719902277e-07,-6.338217129309066e-07,2.062209762575605e-06,6.5874189776564646e-09,-7.060805304915704e-07,1.4453840720065585e-07,5.863258444215249e-06,0.0,0.0,0.0,0.0,0.0,0.0,0.0,0.0,0.0,0.0,0.0,0.0,0.0,0.0,0.0,0.0,0.0,0.0,0.0,0.0,0.0,0.0,0.0,0.0,0.0,0.0,0.0,0.0,0.0,0.0,0.0,0.0,0.0,0.0,0.0,0.0,0.0,0.0,0.0,0.0,0.0,0.0
1776753562461759567,44,1776753562461759567,camera_init,body,5.385003872022013,-0.14693963170393212,0.0004326989747519027,2.222328469579968e-05,0.00014434656969408772,0.3013038198373791,0.9535281783049694,9.250261722597148e-07,1.8993766340602923e-07,1.1174323260194164e-07,-1.1232016413557371e-07,1.3297668639130483e-07,-7.167598502637209e-07,1.8993766340601985e-07,1.6633892919371135e-06,1.199382690977516e-07,-4.520768657422047e-07,3.8422752270982907e-07,2.1516978265881687e-06,1.1174323260197531e-07,1.1993826909765445e-07,1.971249230269308e-06,3.733299014153876e-06,-8.121926857261464e-07,5.785299999166769e-10,-1.1232016413547747e-07,-4.520768657425054e-07,3.7332990141538715e-06,1.1555496083550592e-05,7.84936364146412e-06,-6.787311532280922e-07,1.3297668639150886e-07,3.8422752270934997e-07,-8.121926857260158e-07,7.849363641464773e-06,0.0001302446343726421,5.753003835459087e-07,-7.167598502637448e-07,2.1516978265882047e-06,5.785300001841474e-10,-6.787311532272428e-07,5.753003835473674e-07,6.189806961816383e-06,0.0,0.0,0.0,0.0,0.0,0.0,0.0,0.0,0.0,0.0,0.0,0.0,0.0,0.0,0.0,0.0,0.0,0.0,0.0,0.0,0.0,0.0,0.0,0.0,0.0,0.0,0.0,0.0,0.0,0.0,0.0,0.0,0.0,0.0,0.0,0.0,0.0,0.0,0.0,0.0,0.0,0.0
1776753562561759472,45,1776753562561759472,camera_init,body,5.503954792618158,-0.14419314341090383,0.00043144369183700467,5.086791277728249e-05,0.00023159926619885953,0.3072066848132964,0.9516427883298721,9.682493820058582e-07,2.0895263600155503e-07,1.1951112007341777e-07,-1.1387137178944889e-07,9.633609972316943e-08,-8.166471940234621e-07,2.0895263600154246e-07,1.7753023049167112e-06,1.2971119212368433e-07,-4.69303010878213e-07,3.0622745794001334e-07,2.2549719823493365e-06,1.1951112007345626e-07,1.2971119212359764e-07,2.064811049033366e-06,4.173746079691605e-06,-1.0974457330029958e-06,-1.1684140942565696e-09,-1.1387137178933422e-07,-4.693030108785623e-07,4.173746079691806e-06,1.3261979661240758e-05,7.834847012385087e-06,-6.915411902264513e-07,9.633609972334391e-08,3.062274579395099e-07,-1.0974457330027006e-06,7.83484701238578e-06,0.00014249713263775785,5.781456508757501e-07,-8.166471940234762e-07,2.25497198234939e-06,-1.1684140940194732e-09,-6.915411902255394e-07,5.781456508772553e-07,6.555099033146525e-06,0.0,0.0,0.0,0.0,0.0,0.0,0.0,0.0,0.0,0.0,0.0,0.0,0.0,0.0,0.0,0.0,0.0,0.0,0.0,0.0,0.0,0.0,0.0,0.0,0.0,0.0,0.0,0.0,0.0,0.0,0.0,0.0,0.0,0.0,0.0,0.0,0.0,0.0,0.0,0.0,0.0,0.0
1776753562661759615,46,1776753562661759615,camera_init,body,5.622206943169946,-0.12319317093714187,0.00032563136809037594,4.615740496917164e-05,0.00016172028494640557,0.3134696193050547,0.949598214767057,1.045685615233926e-06,2.1914640090463176e-07,1.1118996917859022e-07,-1.585814005548012e-07,5.7855595351024296e-08,-9.83349584970515e-07,2.1914640090463533e-07,1.892904946300873e-06,1.1597834005976463e-07,-5.29800264853437e-07,7.38365621848857e-07,2.355600131742466e-06,1.1118996917863248e-07,1.1597834005966468e-07,2.0917475419043248e-06,4.311017291948437e-06,-4.975971069423744e-07,-2.5577316657240584e-08,-1.5858140055470433e-07,-5.298002648537447e-07,4.311017291948455e-06,1.3441489942758177e-05,5.98903928675215e-06,-6.863055219119454e-07,5.7855595351189255e-08,7.383656218484233e-07,-4.975971069421814e-07,5.9890392867527855e-06,0.00012781507501597752,1.0764487234700031e-06,-9.83349584970591e-07,2.3556001317425134e-06,-2.5577316656958244e-08,-6.863055219110825e-07,1.0764487234712828e-06,6.989714127498447e-06,0.0,0.0,0.0,0.0,0.0,0.0,0.0,0.0,0.0,0.0,0.0,0.0,0.0,0.0,0.0,0.0,0.0,0.0,0.0,0.0,0.0,0.0,0.0,0.0,0.0,0.0,0.0,0.0,0.0,0.0,0.0,0.0,0.0,0.0,0.0,0.0,0.0,0.0,0.0,0.0,0.0,0.0
1776753562761759520,47,1776753562761759520,camera_init,body,5.738354897271157,-0.10914491773963225,0.0002690437438929824,3.551204256735458e-05,0.00010269035838763353,0.3190480108653779,0.9477385477843685,1.125773422363426e-06,2.641746977146728e-07,1.316249929003171e-07,-1.4010350212728125e-07,1.592156092242243e-07,-1.1090245780091426e-06,2.64174697714702e-07,2.1227970522820494e-06,1.4361279912499484e-07,-5.34903405491796e-07,8.63329148822042e-07,2.5613593659263335e-06,1.3162499290036406e-07,1.4361279912487123e-07,2.3727971625913866e-06,4.777810687454572e-06,-9.440799181686802e-07,-3.588231463323025e-08,-1.401035021271507e-07,-5.349034054921336e-07,4.777810687454595e-06,1.4740231772604543e-05,6.0068285817057835e-06,-6.969765144485861e-07,1.5921560922440653e-07,8.633291488215541e-07,-9.440799181684843e-07,6.006828581706439e-06,0.00013291287937762077,1.2469473536083465e-06,-1.1090245780091673e-06,2.5613593659262403e-06,-3.588231463294748e-08,-6.969765144476694e-07,1.246947353609692e-06,7.5020834407703746e-06,0.0,0.0,0.0,0.0,0.0,0.0,0.0,0.0,0.0,0.0,0.0,0.0,0.0,0.0,0.0,0.0,0.0,0.0,0.0,0.0,0.0,0.0,0.0,0.0,0.0,0.0,0.0,0.0,0.0,0.0,0.0,0.0,0.0,0.0,0.0,0.0,0.0,0.0,0.0,0.0,0.0,0.0
1776753562861759663,48,1776753562861759663,camera_init,body,5.853830650156295,-0.08280127316689136,0.00012187109128718079,6.159554698571965e-05,7.293376282789544e-05,0.32454376989118433,0.945870674199948,1.2085653694676314e-06,2.6214492395416124e-07,1.5021977272120985e-07,-1.282530827045916e-07,-9.492038523082958e-08,-1.2890620211544531e-06,2.621449239541569e-07,2.3102484760972517e-06,1.641326046587772e-07,-5.501079988693467e-07,6.565674404101463e-07,2.7290552505056693e-06,1.502197727212423e-07,1.6413260465867503e-07,2.487602452201717e-06,5.345318188923408e-06,-9.39189216617293e-07,-4.635883519518667e-08,-1.2825308270444624e-07,-5.501079988697766e-07,5.345318188923848e-06,1.6741259620808034e-05,5.770134001895731e-06,-7.152098600653086e-07,-9.492038523059474e-08,6.565674404097067e-07,-9.391892166170628e-07,5.770134001896335e-06,0.0001203292530200693,1.3124022915218943e-06,-1.289062021154369e-06,2.729055250505715e-06,-4.6358835194907624e-08,-7.152098600643038e-07,1.3124022915231568e-06,8.084401534759963e-06,0.0,0.0,0.0,0.0,0.0,0.0,0.0,0.0,0.0,0.0,0.0,0.0,0.0,0.0,0.0,0.0,0.0,0.0,0.0,0.0,0.0,0.0,0.0,0.0,0.0,0.0,0.0,0.0,0.0,0.0,0.0,0.0,0.0,0.0,0.0,0.0,0.0,0.0,0.0,0.0,0.0,0.0
